stop_id,stop_code,stop_name,stop_desc,stop_lat,stop_lon,zone_id,stop_url,location_type,parent_station,stop_timezone
1309,1309,Kivelänperäntie,,60.36122187,22.12078782,FÖLI,,0,,Europe/Helsinki
1770,1770,Nousiaistenkatu,,60.53475978,22.29058928,FÖLI,,0,,Europe/Helsinki
5242,5242,Kulkuripellontie,,60.47144255,22.41218617,FÖLI,,0,,Europe/Helsinki
1750,1750,Rälssinkatu,,60.39941713,22.25755411,FÖLI,,0,,Europe/Helsinki
2116,2116,Haunisten liittymä,,60.49097391,22.18846792,FÖLI,,0,,Europe/Helsinki
1055,1055,Untolankatu,,60.46130763,22.24563343,FÖLI,,0,,Europe/Helsinki
T42,T42,Kauppatori,,60.45050829,22.26627162,FÖLI,,0,,Europe/Helsinki
143,143,Ajurinkatu,,60.45577496,22.26066121,FÖLI,,0,,Europe/Helsinki
6239,6239,Lystilä,,60.42682186,22.53996043,FÖLI,,0,,Europe/Helsinki
1289,1289,Kierläntie,,60.34844499,22.21015957,FÖLI,,0,,Europe/Helsinki
27,27,Markulantie,,60.47652276,22.25023339,FÖLI,,0,,Europe/Helsinki
206,206,Koulukatu,,60.45012505,22.25375093,FÖLI,,0,,Europe/Helsinki
4017,4017,Ruskon keskusta,,60.54111012,22.22196848,FÖLI,,0,,Europe/Helsinki
6240,6240,Lystilä,,60.4265919,22.53846456,FÖLI,,0,,Europe/Helsinki
8015,8015,Holpinkatu,,60.64295316,22.59167378,V-S ELY,,0,,Europe/Helsinki
6183,6183,Verhonkuja,,60.41534762,22.54251608,FÖLI,,0,,Europe/Helsinki
2060,2060,Tenavakatu,,60.49826272,22.15738067,FÖLI,,0,,Europe/Helsinki
1023,1023,Untolankatu,,60.46078263,22.24603808,FÖLI,,0,,Europe/Helsinki
8114,8114,Kalakouluntie P,,60.32518937,22.34594504,V-S ELY,,0,,Europe/Helsinki
6671,6671,Yli-Markkula,,60.49028262,22.75214433,V-S ELY,,0,,Europe/Helsinki
3213,3213,Lampuodintie,,60.49865011,22.0428198,FÖLI,,0,,Europe/Helsinki
5062,5062,Pakurla,,60.4994894,22.36308599,FÖLI,,0,,Europe/Helsinki
1118,1118,Mäntysaarentie,,60.56596056,22.33621611,FÖLI,,0,,Europe/Helsinki
3170,3170,Sattirauma,,60.33962451,21.9783794,FÖLI,,0,,Europe/Helsinki
5007,5007,Nenämäki,,60.4864621,22.4011697,FÖLI,,0,,Europe/Helsinki
5037,5037,Teollisuuskuja,,60.51277877,22.471588,FÖLI,,0,,Europe/Helsinki
1076,1076,Moisionramppi,,60.53303291,22.30687951,FÖLI,,0,,Europe/Helsinki
6608,6608,Vuohimäentie,,60.45121713,22.62002447,V-S ELY,,0,,Europe/Helsinki
1465,1465,Pulkkavuori,,60.41532358,22.27830518,FÖLI,,0,,Europe/Helsinki
6660,6660,Kiusala,,60.45938963,22.72484798,V-S ELY,,0,,Europe/Helsinki
5075,5075,Laustee,,60.51395706,22.4038842,FÖLI,,0,,Europe/Helsinki
891,891,Pitkämäenpuisto,,60.45892901,22.23544084,FÖLI,,0,,Europe/Helsinki
1216,1216,Jäkäläpuisto,,60.42920096,22.26579351,FÖLI,,0,,Europe/Helsinki
5310,5310,Saukonojan koulu,,60.49705426,22.53408789,FÖLI,,0,,Europe/Helsinki
1567,1567,Parolanpuisto,,60.49183339,22.26105595,FÖLI,,0,,Europe/Helsinki
1022,1022,Ruohonpäänkatu,,60.4640217,22.24157574,FÖLI,,0,,Europe/Helsinki
171,171,Mikaelinkirkko,,60.4482855,22.24881481,FÖLI,,0,,Europe/Helsinki
416,416,Nepontie,,60.38913161,22.18209815,FÖLI,,0,,Europe/Helsinki
4016,4016,Tuori,,60.53548264,22.21998943,FÖLI,,0,,Europe/Helsinki
5238,5238,Perkiöntie,,60.47987411,22.40798768,FÖLI,,0,,Europe/Helsinki
2043,2043,Raision vesitorni,,60.48125346,22.10314907,FÖLI,,0,,Europe/Helsinki
681,681,Raisionjoki,,60.44753663,22.20315253,FÖLI,,0,,Europe/Helsinki
1645,1645,Kuikkulankatu,,60.46361896,22.29090577,FÖLI,,0,,Europe/Helsinki
6290,6290,Rauhalinna,,60.40688326,22.41131899,FÖLI,,0,,Europe/Helsinki
2058,2058,Kerttulan koulu,,60.49647537,22.15817647,FÖLI,,0,,Europe/Helsinki
1569,1569,Lähetinkatu,,60.48666745,22.27001076,FÖLI,,0,,Europe/Helsinki
1237,1237,Kollinmetsäntie,,60.35369449,22.17882755,FÖLI,,0,,Europe/Helsinki
137,137,Sepänkatu,,60.44247654,22.27099087,FÖLI,,0,,Europe/Helsinki
968,968,Suikkilantie,,60.45401037,22.19418608,FÖLI,,0,,Europe/Helsinki
1461,1461,Hintsa Knaapin katu,,60.44151078,22.35610213,FÖLI,,0,,Europe/Helsinki
6209,6209,Kärki,,60.39933438,22.38569177,FÖLI,,0,,Europe/Helsinki
613,613,Parrantie,,60.46890737,22.2671377,FÖLI,,0,,Europe/Helsinki
1183,1183,Ketussuontie,,60.51299122,22.30402252,FÖLI,,0,,Europe/Helsinki
3037,3037,Porhonkallio,,60.46083775,21.93329158,FÖLI,,0,,Europe/Helsinki
995,995,Markulanpuisto,,60.47485579,22.26552272,FÖLI,,0,,Europe/Helsinki
1729,1729,Maanpää,,60.40777844,22.15510382,FÖLI,,0,,Europe/Helsinki
4041,4041,Merttelä,,60.56123535,22.23084582,FÖLI,,0,,Europe/Helsinki
3055,3055,Kirkonsalmentie,,60.48015636,21.87252454,FÖLI,,0,,Europe/Helsinki
792,792,Koivulan liittymä,,60.42307976,22.31609387,FÖLI,,0,,Europe/Helsinki
1765,1765,Kollinmetsäntie,,60.35418107,22.1778663,FÖLI,,0,,Europe/Helsinki
358,358,Kukolantie,,60.40992321,22.23631653,FÖLI,,0,,Europe/Helsinki
21,21,Rauninaukio,,60.46307054,22.2620353,FÖLI,,0,,Europe/Helsinki
2104,2104,Vaisaari,,60.4737605,22.16009335,FÖLI,,0,,Europe/Helsinki
5129,5129,Taivalrannantie,,60.55026407,22.39129393,FÖLI,,0,,Europe/Helsinki
5375,5375,Pettinen,,60.50238988,22.47881824,FÖLI,,0,,Europe/Helsinki
3199,3199,Aurinkosäätiön palvelutalo,,60.46608247,22.02987748,FÖLI,,0,,Europe/Helsinki
543,543,Honkapirtti,,60.42757459,22.149587,FÖLI,,0,,Europe/Helsinki
862,862,Kaupunginsairaala,,60.44166517,22.27626494,FÖLI,,0,,Europe/Helsinki
1602,1602,Verkahovi,,60.4574219,22.27283618,FÖLI,,0,,Europe/Helsinki
8002,8002,Leinakkala,,60.5758686,22.49075104,V-S ELY,,0,,Europe/Helsinki
6701,6701,Ilttula,,60.42237727,22.76670989,V-S ELY,,0,,Europe/Helsinki
580,580,Puhdistamo,,60.44674239,22.23408116,FÖLI,,0,,Europe/Helsinki
601,601,Rusthollinkatu,,60.41567703,22.26170903,FÖLI,,0,,Europe/Helsinki
6174,6174,Asematie,,60.42506768,22.51399948,FÖLI,,0,,Europe/Helsinki
2117,2117,Kauppakeskus Mylly,,60.49154694,22.20035648,FÖLI,,0,,Europe/Helsinki
3309,3309,Lempiöntie,,60.36217675,21.99165955,FÖLI,,0,,Europe/Helsinki
3299,3299,Mäntymäentie,,60.35843186,21.88590901,FÖLI,,0,,Europe/Helsinki
996,996,Itäinen Pitkäkatu,,60.44354043,22.27664065,FÖLI,,0,,Europe/Helsinki
1156,1156,Purolantie,,60.642128,22.42044489,FÖLI,,0,,Europe/Helsinki
5134,5134,Ylämaantie,,60.53979187,22.39028603,FÖLI,,0,,Europe/Helsinki
6109,6109,Solmukatu,,60.46479792,22.36726225,FÖLI,,0,,Europe/Helsinki
1120,1120,Krouvintie,,60.57105576,22.34592954,FÖLI,,0,,Europe/Helsinki
1814,1814,Hirvensalonsilta,,60.42116679,22.23394103,FÖLI,,0,,Europe/Helsinki
1512,1512,Tillerinkatu,,60.45811156,22.17806709,FÖLI,,0,,Europe/Helsinki
3293,3293,Kuristentie,,60.3715358,21.96259764,FÖLI,,0,,Europe/Helsinki
988,988,Ispoinen,,60.42727097,22.26865739,FÖLI,,0,,Europe/Helsinki
1503,1503,Lausteen koulu,,60.43273002,22.35901269,FÖLI,,0,,Europe/Helsinki
3171,3171,Herrankukkaro,,60.33519516,21.97991425,FÖLI,,0,,Europe/Helsinki
6116,6116,Ravattula,,60.47227003,22.36187883,FÖLI,,0,,Europe/Helsinki
3217,3217,Nuhjalan liikekeskus,,60.48431151,22.05235703,FÖLI,,0,,Europe/Helsinki
5194,5194,Liedon vanhainkoti,,60.52034996,22.45001189,FÖLI,,0,,Europe/Helsinki
946,946,Everstinkatu,,60.42693389,22.25743023,FÖLI,,0,,Europe/Helsinki
2035,2035,Kynölä,,60.47120498,22.11109634,FÖLI,,0,,Europe/Helsinki
743,743,Paavolanaukio,,60.4570915,22.17250211,FÖLI,,0,,Europe/Helsinki
2033,2033,Kaanaan koulu,,60.46792584,22.10823955,FÖLI,,0,,Europe/Helsinki
5225,5225,Palmuntie,,60.4692587,22.46466356,FÖLI,,0,,Europe/Helsinki
6095,6095,Uusi Littoistentie,,60.44660043,22.37497248,FÖLI,,0,,Europe/Helsinki
1705,1705,Rykmentintie,,60.41564151,22.26904121,FÖLI,,0,,Europe/Helsinki
2119,2119,Nikkarinkatu,,60.48958521,22.20729862,FÖLI,,0,,Europe/Helsinki
8134,8134,Paraisten kirkko E,,60.30233998,22.30195215,V-S ELY,,0,,Europe/Helsinki
213,213,Vesilaitos,,60.46188972,22.30481174,FÖLI,,0,,Europe/Helsinki
611,611,Ahjokatu,,60.44686528,22.15289277,FÖLI,,0,,Europe/Helsinki
1559,1559,Viilarinkatu,,60.47252602,22.23049264,FÖLI,,0,,Europe/Helsinki
551,551,Ykköspirtti,,60.42675859,22.10720055,FÖLI,,0,,Europe/Helsinki
1561,1561,Uimahalli,,60.47621832,22.26086106,FÖLI,,0,,Europe/Helsinki
356,356,Skanssinkatu,,60.42927645,22.31896544,FÖLI,,0,,Europe/Helsinki
6233,6233,"Piikkiö, 110-tie",,60.42276757,22.51909877,FÖLI,,0,,Europe/Helsinki
724,724,Artukaisten tehtaat,,60.44588096,22.18892894,FÖLI,,0,,Europe/Helsinki
5412,5412,Kaajan puutarha,,60.57526394,22.70534047,FÖLI,,0,,Europe/Helsinki
1721,1721,Luolavuoren koulu,,60.43128126,22.28182477,FÖLI,,0,,Europe/Helsinki
228,228,Virusmäenpuisto,,60.4663389,22.27962175,FÖLI,,0,,Europe/Helsinki
1167,1167,Levauksentie,,60.60136677,22.39948247,FÖLI,,0,,Europe/Helsinki
5463,5463,Pikku-Eura,,60.59558446,22.68662662,FÖLI,,0,,Europe/Helsinki
1584,1584,Moisiontie,,60.50982129,22.28834548,FÖLI,,0,,Europe/Helsinki
869,869,Hammasklinikka,,60.45056272,22.29161703,FÖLI,,0,,Europe/Helsinki
3247,3247,Inttiläntie,,60.45575766,21.97813011,FÖLI,,0,,Europe/Helsinki
T84,T84,Keskusta,,60.4502359,22.26998785,FÖLI,,0,,Europe/Helsinki
3266,3266,Huhtakarintie,,60.5153925,21.7584107,FÖLI,,0,,Europe/Helsinki
107,107,Koulukatu,,60.44703619,22.25613163,FÖLI,,0,,Europe/Helsinki
5041,5041,Närepolku,,60.51531857,22.4778154,FÖLI,,0,,Europe/Helsinki
450,450,Kuraattorinpolku,,60.46425309,22.29383626,FÖLI,,0,,Europe/Helsinki
451,451,Inspehtoorinkatu,,60.46213823,22.28818939,FÖLI,,0,,Europe/Helsinki
634,634,Kunnallissairaalantie,,60.44195065,22.27896442,FÖLI,,0,,Europe/Helsinki
471,471,Itäkaari,,60.43098656,22.33001436,FÖLI,,0,,Europe/Helsinki
904,904,Autokatsastus,,60.45656905,22.22779556,FÖLI,,0,,Europe/Helsinki
4067,4067,Vahdon kirkko,,60.60913032,22.30616177,FÖLI,,0,,Europe/Helsinki
6157,6157,Rojola,,60.42035245,22.47565252,FÖLI,,0,,Europe/Helsinki
526,526,Artturinkatu,,60.44836237,22.23839328,FÖLI,,0,,Europe/Helsinki
308,308,Pikkuhaankuja,,60.39648766,22.20573991,FÖLI,,0,,Europe/Helsinki
5340,5340,Lehtimäentie,,60.55805968,22.57849911,FÖLI,,0,,Europe/Helsinki
1621,1621,Maunu Tavastin katu,,60.47304468,22.3085696,FÖLI,,0,,Europe/Helsinki
6194,6194,Linnunpääntie,,60.39650913,22.56004821,FÖLI,,0,,Europe/Helsinki
5372,5372,Kurkela,,60.52259173,22.43355535,FÖLI,,0,,Europe/Helsinki
6005,6005,Kairiskulma,,60.4123376,22.31435128,FÖLI,,0,,Europe/Helsinki
6382,6382,Rukkikatu,,60.44690719,22.38302651,FÖLI,,0,,Europe/Helsinki
1152,1152,Välimaantie,,60.67320476,22.43698474,FÖLI,,0,,Europe/Helsinki
2151,2151,Alankoja,,60.50406073,22.23208442,FÖLI,,0,,Europe/Helsinki
1311,1311,Samppa,,60.36866793,22.12252276,FÖLI,,0,,Europe/Helsinki
1357,1357,Halvarinkatu,,60.40749974,22.23868923,FÖLI,,0,,Europe/Helsinki
1660,1660,Kuralankaarre,,60.46162281,22.32864592,FÖLI,,0,,Europe/Helsinki
225,225,Suutarinkatu,,60.46282152,22.27095698,FÖLI,,0,,Europe/Helsinki
831,831,Talpiankuja,,60.45073498,22.35636594,FÖLI,,0,,Europe/Helsinki
39,39,Rauninaukio,,60.46291389,22.26167582,FÖLI,,0,,Europe/Helsinki
1670,1670,Tierankatu,,60.4436962,22.31306552,FÖLI,,0,,Europe/Helsinki
2086,2086,Rankio,,60.46410754,22.15501461,FÖLI,,0,,Europe/Helsinki
3181,3181,Järvensuuntie,,60.45143658,21.90331777,FÖLI,,0,,Europe/Helsinki
319,319,Kuusistontie,,60.39932246,22.18393246,FÖLI,,0,,Europe/Helsinki
1400,1400,Mäenpääntie,,60.64986935,22.4267783,FÖLI,,0,,Europe/Helsinki
3149,3149,Velusmaantie,,60.3792808,21.94348797,FÖLI,,0,,Europe/Helsinki
6133,6133,Kaarinan keskusurheilukenttä,,60.40951964,22.3598539,FÖLI,,0,,Europe/Helsinki
3236,3236,Käkölä,,60.43195105,22.05071178,FÖLI,,0,,Europe/Helsinki
265,265,Linnasmäki,,60.48182083,22.30300023,FÖLI,,0,,Europe/Helsinki
5124,5124,"Liedon koulukeskus, laituri 4",,60.50071283,22.45200451,FÖLI,,0,,Europe/Helsinki
990,990,Takamaantie,,60.43089803,22.27331316,FÖLI,,0,,Europe/Helsinki
5420,5420,Postikuja,,60.58350546,22.74319558,FÖLI,,0,,Europe/Helsinki
1778,1778,Elisabetinkatu,,60.54050127,22.30884367,FÖLI,,0,,Europe/Helsinki
6038,6038,Hovipojankuja,,60.40665003,22.36315317,FÖLI,,0,,Europe/Helsinki
6747,6747,Leppämäentie,,60.4746056,22.66120647,V-S ELY,,0,,Europe/Helsinki
3277,3277,Ruokorauma,,60.40395952,21.95417503,FÖLI,,0,,Europe/Helsinki
6300,6300,Kylliäisentie,,60.3926549,22.39632181,FÖLI,,0,,Europe/Helsinki
1682,1682,Hautausmaantie,,60.43517834,22.31780564,FÖLI,,0,,Europe/Helsinki
744,744,Leppäkertunkatu,,60.45523255,22.16959286,FÖLI,,0,,Europe/Helsinki
173,173,Lukoilantie,,60.4667661,22.22908155,FÖLI,,0,,Europe/Helsinki
1376,1376,Säkyläntie,,60.62160677,22.42497036,FÖLI,,0,,Europe/Helsinki
1821,1821,Huolintakatu,,60.44268669,22.22428613,FÖLI,,0,,Europe/Helsinki
6244,6244,Pohtionvuori,,60.42984965,22.55387495,FÖLI,,0,,Europe/Helsinki
203,203,Autistenaukio,,60.46117087,22.26751983,FÖLI,,0,,Europe/Helsinki
1702,1702,Rusthollinkatu,,60.41602546,22.26240368,FÖLI,,0,,Europe/Helsinki
8123,8123,Söderby L,,60.30605999,22.32504458,V-S ELY,,0,,Europe/Helsinki
6141,6141,Voivala,,60.41122183,22.41199727,FÖLI,,0,,Europe/Helsinki
79,79,Turun satama (Viking),,60.43418878,22.22149708,FÖLI,,0,,Europe/Helsinki
309,309,Niittymäentie,,60.39427015,22.20085192,FÖLI,,0,,Europe/Helsinki
8011,8011,Pitkäniitty,,60.62028706,22.57953552,V-S ELY,,0,,Europe/Helsinki
624,624,Valkiasvuorentie,,60.47853668,22.274986,FÖLI,,0,,Europe/Helsinki
603,603,Tulppaanipolku,,60.49245339,22.24088191,FÖLI,,0,,Europe/Helsinki
349,349,Skanssi,,60.42789142,22.32303888,FÖLI,,0,,Europe/Helsinki
794,794,Kappeli,,60.4292765,22.30468773,FÖLI,,0,,Europe/Helsinki
5440,5440,Tarvasjoen kirkko,,60.58684963,22.73955726,FÖLI,,0,,Europe/Helsinki
756,756,Aunelantie,,60.45467436,22.19514358,FÖLI,,0,,Europe/Helsinki
615,615,Taskulantie,,60.47329016,22.27890137,FÖLI,,0,,Europe/Helsinki
3196,3196,Kurala,,60.3982691,21.87833584,FÖLI,,0,,Europe/Helsinki
3161,3161,Paavaistentie,,60.35369577,21.95791468,FÖLI,,0,,Europe/Helsinki
1276,1276,Käpälämäki,,60.37007816,22.25599939,FÖLI,,0,,Europe/Helsinki
6349,6349,Hakatie,,60.43436355,22.49780139,FÖLI,,0,,Europe/Helsinki
3206,3206,Raina-Säätiö,,60.49215459,22.06306151,FÖLI,,0,,Europe/Helsinki
6313,6313,Metsätie,,60.39029021,22.37069801,FÖLI,,0,,Europe/Helsinki
1392,1392,Ropontie,,60.56117811,22.35012803,FÖLI,,0,,Europe/Helsinki
6695,6695,Kurki,,60.39960934,22.79041728,V-S ELY,,0,,Europe/Helsinki
6054,6054,Aumatie,,60.41087194,22.40343095,FÖLI,,0,,Europe/Helsinki
310,310,Haarlahdentie,,60.39317916,22.19554385,FÖLI,,0,,Europe/Helsinki
812,812,Taoskuja,,60.47291226,22.23449749,FÖLI,,0,,Europe/Helsinki
6333,6333,Munste,,60.38552755,22.49656656,FÖLI,,0,,Europe/Helsinki
6214,6214,Linnanrauniontie,,60.39178299,22.39502822,FÖLI,,0,,Europe/Helsinki
1475,1475,Hamppukatu,,60.42116592,22.30084087,FÖLI,,0,,Europe/Helsinki
355,355,Kaistarniementie,,60.40163248,22.25463228,FÖLI,,0,,Europe/Helsinki
3209,3209,Nurmitie,,60.49860596,22.05323632,FÖLI,,0,,Europe/Helsinki
6286,6286,Ahmankatu,,60.4118006,22.3307709,FÖLI,,0,,Europe/Helsinki
220,220,Kaskenkatu,,60.44841794,22.27145391,FÖLI,,0,,Europe/Helsinki
4037,4037,Sattontie,,60.55298114,22.22530798,FÖLI,,0,,Europe/Helsinki
291,291,Wäinö Aaltosen museo,,60.44539061,22.26041203,FÖLI,,0,,Europe/Helsinki
3310,3310,Lehtismäentie,,60.49513531,22.06051095,FÖLI,,0,,Europe/Helsinki
147,147,Solkitarha,,60.48003799,22.29833999,FÖLI,,0,,Europe/Helsinki
5020,5020,Kirkkotie,,60.50253996,22.44864933,FÖLI,,0,,Europe/Helsinki
883,883,Pihkalankatu,,60.44355728,22.36399743,FÖLI,,0,,Europe/Helsinki
452,452,Pispalantie,,60.46125758,22.2866787,FÖLI,,0,,Europe/Helsinki
5411,5411,Kaajan puutarha,,60.57719841,22.70484583,FÖLI,,0,,Europe/Helsinki
6190,6190,Viukkala,,60.40281262,22.55097498,FÖLI,,0,,Europe/Helsinki
1502,1502,Lausteen koulu,,60.43291104,22.35853209,FÖLI,,0,,Europe/Helsinki
836,836,Hännikönkatu,,60.44267532,22.34749305,FÖLI,,0,,Europe/Helsinki
8028,8028,Säästökallio,,60.64784004,22.56469623,V-S ELY,,0,,Europe/Helsinki
36,36,Niitunniskantie,,60.46762403,22.24878677,FÖLI,,0,,Europe/Helsinki
6337,6337,Kiimaniityntie,,60.3910864,22.50277246,FÖLI,,0,,Europe/Helsinki
6607,6607,Vuohimäentie,,60.4514253,22.62197981,V-S ELY,,0,,Europe/Helsinki
8107,8107,Lielahdentie E,,60.33798124,22.36414233,V-S ELY,,0,,Europe/Helsinki
6142,6142,Voivala,,60.41112795,22.40953849,FÖLI,,0,,Europe/Helsinki
1326,1326,Nummenpuistokatu,,60.45700066,22.30358953,FÖLI,,0,,Europe/Helsinki
6705,6705,Isoheikoistentie,,60.43182117,22.74551381,V-S ELY,,0,,Europe/Helsinki
389,389,Suvelantie,,60.38711409,22.22258016,FÖLI,,0,,Europe/Helsinki
1783,1783,Mikkelinkuja,,60.54564195,22.30649153,FÖLI,,0,,Europe/Helsinki
6219,6219,Olkikaupungintie,,60.38008463,22.37968562,FÖLI,,0,,Europe/Helsinki
5015,5015,Vieru,,60.4990666,22.4325337,FÖLI,,0,,Europe/Helsinki
6713,6713,Mäkeläntie,,60.46834744,22.68685729,V-S ELY,,0,,Europe/Helsinki
6046,6046,Kaarinan terveyskeskus,,60.40734576,22.37512224,FÖLI,,0,,Europe/Helsinki
1738,1738,Haarlantie,,60.39310719,22.21197959,FÖLI,,0,,Europe/Helsinki
6078,6078,Paltantie,,60.44081556,22.40936348,FÖLI,,0,,Europe/Helsinki
5274,5274,Pahkamäen koulu,,60.55921179,22.4460576,FÖLI,,0,,Europe/Helsinki
201,201,Virusmäentie,,60.46514962,22.27296653,FÖLI,,0,,Europe/Helsinki
6636,6636,Kerkola,,60.43552189,22.68461376,V-S ELY,,0,,Europe/Helsinki
6118,6118,Tammi,,60.47557964,22.36655988,FÖLI,,0,,Europe/Helsinki
90,90,Moikoinen,,60.41209999,22.23508857,FÖLI,,0,,Europe/Helsinki
3007,3007,Ruona,,60.47754735,22.04167472,FÖLI,,0,,Europe/Helsinki
842,842,Peronkatu,,60.4492649,22.31597418,FÖLI,,0,,Europe/Helsinki
3168,3168,Aatilantie,,60.34509921,21.97666484,FÖLI,,0,,Europe/Helsinki
1159,1159,Haavikko,,60.63031785,22.42444743,FÖLI,,0,,Europe/Helsinki
802,802,Lukkosepänkatu,,60.47332449,22.20891895,FÖLI,,0,,Europe/Helsinki
T4,T4,Kauppatori,,60.45024849,22.26705573,FÖLI,,0,,Europe/Helsinki
5152,5152,Pränikkälä,,60.52912996,22.52639705,FÖLI,,0,,Europe/Helsinki
8950,8950,Nauvo,,60.19271529,21.90964615,V-S ELY,,0,,Europe/Helsinki
5413,5413,Lakiassuo,,60.57926628,22.70570345,FÖLI,,0,,Europe/Helsinki
6045,6045,Kaarina,,60.40791384,22.37129732,FÖLI,,0,,Europe/Helsinki
6212,6212,Papinholma,,60.3968974,22.38981658,FÖLI,,0,,Europe/Helsinki
6017,6017,Pohjola,,60.40637281,22.34801678,FÖLI,,0,,Europe/Helsinki
3219,3219,Taimon päiväkoti,,60.48277177,22.0390168,FÖLI,,0,,Europe/Helsinki
194,194,Kärsämäen koulu,,60.48223345,22.28796516,FÖLI,,0,,Europe/Helsinki
3110,3110,Kielokuja,,60.48911857,22.04331221,FÖLI,,0,,Europe/Helsinki
3148,3148,Taipaleentie,,60.38409441,21.92727883,FÖLI,,0,,Europe/Helsinki
6039,6039,Hovipojankuja,,60.40704909,22.36376874,FÖLI,,0,,Europe/Helsinki
1791,1791,Kiiraskuja,,60.54259582,22.29939556,FÖLI,,0,,Europe/Helsinki
PT4,PT4,Puutori,,60.45514168,22.26838088,FÖLI,,0,,Europe/Helsinki
1403,1403,Vesilaitos,,60.46250243,22.30434073,FÖLI,,0,,Europe/Helsinki
383,383,Uudenkyläntie,,60.37436146,22.19234671,FÖLI,,0,,Europe/Helsinki
5029,5029,Junninlaituri,,60.5095316,22.45674603,FÖLI,,0,,Europe/Helsinki
1322,1322,Kivikankareenkuja,,60.37509337,22.17831024,FÖLI,,0,,Europe/Helsinki
3254,3254,Sannaistentie,,60.44519096,21.82637002,FÖLI,,0,,Europe/Helsinki
922,922,Ratsumiehenkatu,,60.42020608,22.25912123,FÖLI,,0,,Europe/Helsinki
1658,1658,Kylämäki,,60.46154777,22.33368158,FÖLI,,0,,Europe/Helsinki
1283,1283,Kenraalintie,,60.35624311,22.26915672,FÖLI,,0,,Europe/Helsinki
1410,1410,Paavinkatu,,60.4702149,22.30761309,FÖLI,,0,,Europe/Helsinki
329,329,Ruuhikuja,,60.42388661,22.21979326,FÖLI,,0,,Europe/Helsinki
1092,1092,Urheilutalo,,60.51744577,22.34898838,FÖLI,,0,,Europe/Helsinki
686,686,Ahvenanmaankatu,,60.41371094,22.30893584,FÖLI,,0,,Europe/Helsinki
1615,1615,Lustokatu,,60.47734573,22.3007705,FÖLI,,0,,Europe/Helsinki
1716,1716,Puimalankuja,,60.43012523,22.28877716,FÖLI,,0,,Europe/Helsinki
1610,1610,Orikedonkatu,,60.48255686,22.31291355,FÖLI,,0,,Europe/Helsinki
1102,1102,Auvaismäki,,60.57478091,22.34988707,FÖLI,,0,,Europe/Helsinki
6687,6687,Mäntylä,,60.41257574,22.73841797,V-S ELY,,0,,Europe/Helsinki
929,929,Kunnallissairaalantie,,60.43555925,22.25928167,FÖLI,,0,,Europe/Helsinki
762,762,Jyrkkälä,,60.45969795,22.19581975,FÖLI,,0,,Europe/Helsinki
5033,5033,Piispalantie,,60.51034932,22.46253841,FÖLI,,0,,Europe/Helsinki
1099,1099,Merovinkikatu,,60.53684295,22.34913758,FÖLI,,0,,Europe/Helsinki
6148,6148,Hulkkio,,60.41424333,22.42898569,FÖLI,,0,,Europe/Helsinki
6159,6159,Rahinpolku,,60.42208848,22.4756836,FÖLI,,0,,Europe/Helsinki
817,817,Rautalankatu,,60.48627106,22.23318935,FÖLI,,0,,Europe/Helsinki
1405,1405,Paavinkatu,,60.47074456,22.30835597,FÖLI,,0,,Europe/Helsinki
3165,3165,Ylikylä,,60.28938661,21.93127078,FÖLI,,0,,Europe/Helsinki
6626,6626,Karpalotie,,60.4453851,22.70304189,V-S ELY,,0,,Europe/Helsinki
6163,6163,Littoistentie,,60.42593746,22.48736744,FÖLI,,0,,Europe/Helsinki
553,553,Ruissalo,,60.42320605,22.09449495,FÖLI,,0,,Europe/Helsinki
1185,1185,Urpontie,,60.45973319,22.26931344,FÖLI,,0,,Europe/Helsinki
3264,3264,Kaamanen,,60.53337161,21.78864634,FÖLI,,0,,Europe/Helsinki
3191,3191,Ylttinen,,60.40349081,21.86031497,FÖLI,,0,,Europe/Helsinki
5222,5222,Jukolantie,,60.48542196,22.45728332,FÖLI,,0,,Europe/Helsinki
3008,3008,Ruona,,60.47754161,22.04200354,FÖLI,,0,,Europe/Helsinki
6235,6235,Toivonlinnantie,,60.42355226,22.526118,FÖLI,,0,,Europe/Helsinki
5246,5246,Liedon kirkko,,60.50886918,22.45129674,FÖLI,,0,,Europe/Helsinki
631,631,Artukaistentie,,60.45716197,22.19257236,FÖLI,,0,,Europe/Helsinki
273,273,Saramäenpuisto,,60.46483842,22.27534258,FÖLI,,0,,Europe/Helsinki
3146,3146,Mäensyrjä,,60.38731786,21.91609216,FÖLI,,0,,Europe/Helsinki
5373,5373,Raarila rist,,60.55001025,22.66762929,FÖLI,,0,,Europe/Helsinki
3060,3060,Kirkonsalmi,,60.48537569,21.87587229,FÖLI,,0,,Europe/Helsinki
20,20,Autistenaukio,,60.46066679,22.26548142,FÖLI,,0,,Europe/Helsinki
1586,1586,Turun lentoasema,,60.51109169,22.27421118,FÖLI,,0,,Europe/Helsinki
1134,1134,Joenperäntie,,60.60978915,22.41250975,FÖLI,,0,,Europe/Helsinki
710,710,Lausteenpuisto,,60.43072825,22.33956417,FÖLI,,0,,Europe/Helsinki
343,343,Moikoinen,,60.41129864,22.23480609,FÖLI,,0,,Europe/Helsinki
1160,1160,Valuntie,,60.62507726,22.42524626,FÖLI,,0,,Europe/Helsinki
1346,1346,Västäräkinkatu,,60.44401699,22.32550189,FÖLI,,0,,Europe/Helsinki
1083,1083,Suihkarintie,,60.51832466,22.2931265,FÖLI,,0,,Europe/Helsinki
1700,1700,Majakkaranta,,60.43061218,22.23231879,FÖLI,,0,,Europe/Helsinki
1590,1590,Mullintie,,60.4744807,22.28002123,FÖLI,,0,,Europe/Helsinki
4061,4061,Kierikkalantie,,60.60236972,22.29187676,FÖLI,,0,,Europe/Helsinki
510,510,Ilpoistenmäki,,60.42152975,22.28825945,FÖLI,,0,,Europe/Helsinki
6021,6021,Katariinanniitty,,60.40705716,22.35833325,FÖLI,,0,,Europe/Helsinki
1677,1677,Fiskarsinkatu,,60.43572946,22.33271607,FÖLI,,0,,Europe/Helsinki
964,964,Kustavintie,,60.46743804,22.22350128,FÖLI,,0,,Europe/Helsinki
2136,2136,Kallanen,,60.49434072,22.10056943,FÖLI,,0,,Europe/Helsinki
494,494,Markulantie,,60.47116164,22.23105756,FÖLI,,0,,Europe/Helsinki
1244,1244,Mäyrämäentie,,60.35243683,22.23212886,FÖLI,,0,,Europe/Helsinki
6602,6602,Villisi,,60.43886276,22.5978437,V-S ELY,,0,,Europe/Helsinki
982,982,Runosmäen terveysasema,,60.48609773,22.26637689,FÖLI,,0,,Europe/Helsinki
3210,3210,Immanen,,60.49936724,22.04783301,FÖLI,,0,,Europe/Helsinki
1824,1824,Telakan vanha portti,,60.45221777,22.13252476,FÖLI,,0,,Europe/Helsinki
908,908,Kaakelitehdas,,60.45711003,22.23661817,FÖLI,,0,,Europe/Helsinki
6115,6115,Ravattula,,60.47091458,22.35935924,FÖLI,,0,,Europe/Helsinki
781,781,Mälikkälä,,60.47163596,22.21621696,FÖLI,,0,,Europe/Helsinki
2051,2051,Kerttulan koulu,,60.49593145,22.15854941,FÖLI,,0,,Europe/Helsinki
3302,3302,Hämmärönsalmi,,60.31649648,21.96348323,FÖLI,,0,,Europe/Helsinki
754,754,Merimieskirkko,,60.45058303,22.20086394,FÖLI,,0,,Europe/Helsinki
956,956,Signalistinpolku,,60.48630453,22.2600605,FÖLI,,0,,Europe/Helsinki
6272,6272,Liedontie,,60.46007272,22.54802412,FÖLI,,0,,Europe/Helsinki
113,113,Toijainen,,60.41130158,22.20962732,FÖLI,,0,,Europe/Helsinki
1342,1342,Rakuunapuisto,,60.43618072,22.30670955,FÖLI,,0,,Europe/Helsinki
5125,5125,Ilmaristen koulu,,60.5070165,22.3810051,FÖLI,,0,,Europe/Helsinki
821,821,Karrinkatu,,60.47873599,22.23467985,FÖLI,,0,,Europe/Helsinki
581,581,Artturinkatu,,60.44770672,22.2369061,FÖLI,,0,,Europe/Helsinki
1967,1967,Peltola hoitokoti,,60.44057141,22.30680276,FÖLI,,0,,Europe/Helsinki
711,711,Fiskarsinkatu,,60.43536006,22.32987673,FÖLI,,0,,Europe/Helsinki
625,625,Punomontie,,60.4759505,22.27304958,FÖLI,,0,,Europe/Helsinki
1145,1145,Perttelmäentie,,60.65882525,22.43288738,FÖLI,,0,,Europe/Helsinki
703,703,Suojakoti,,60.60392075,22.42592448,FÖLI,,0,,Europe/Helsinki
6627,6627,Mäkiläntie,,60.44506928,22.70244696,V-S ELY,,0,,Europe/Helsinki
6002,6002,Hartwall,,60.4148592,22.32289601,FÖLI,,0,,Europe/Helsinki
8126,8126,Björkhagen I,,60.30518368,22.32339441,V-S ELY,,0,,Europe/Helsinki
1823,1823,Telakan vanha portti,,60.45188026,22.13190186,FÖLI,,0,,Europe/Helsinki
1040,1040,Vaapukkatie,,60.44175844,22.31088887,FÖLI,,0,,Europe/Helsinki
5221,5221,Välitie,,60.45974034,22.45154043,FÖLI,,0,,Europe/Helsinki
6238,6238,Korvenmäki,,60.42454011,22.52956401,FÖLI,,0,,Europe/Helsinki
884,884,Koukkarinkatu,,60.44653945,22.36340783,FÖLI,,0,,Europe/Helsinki
1297,1297,Seuraintalo,,60.37607995,22.16859365,FÖLI,,0,,Europe/Helsinki
3227,3227,Linnavuori,,60.45366783,22.01220794,FÖLI,,0,,Europe/Helsinki
617,617,Tulppaanipolku,,60.49230004,22.24086799,FÖLI,,0,,Europe/Helsinki
1139,1139,Haavikko,,60.63085899,22.42449869,FÖLI,,0,,Europe/Helsinki
8144,8144,Norrbyntie I,,60.30972446,22.30889922,V-S ELY,,0,,Europe/Helsinki
804,804,Poropuiston kenttä,,60.43074089,22.33172304,FÖLI,,0,,Europe/Helsinki
889,889,Köydenpunojankatu,,60.45467197,22.2443666,FÖLI,,0,,Europe/Helsinki
249,249,Messinkikatu,,60.5059826,22.3254836,FÖLI,,0,,Europe/Helsinki
179,179,Markulantie,,60.47147127,22.28262648,FÖLI,,0,,Europe/Helsinki
1412,1412,Nikkilä,,60.37602711,22.16442461,FÖLI,,0,,Europe/Helsinki
6617,6617,Paimion kaupungintalo,,60.45647029,22.68812604,V-S ELY,,0,,Europe/Helsinki
466,466,Henrikinkirkko,,60.43325777,22.29396193,FÖLI,,0,,Europe/Helsinki
306,306,Ruotsalantie,,60.40097367,22.20696869,FÖLI,,0,,Europe/Helsinki
1768,1768,Kaharinkatu,,60.53246343,22.28997475,FÖLI,,0,,Europe/Helsinki
3075,3075,Hepoluoto,,60.50268457,21.76026779,FÖLI,,0,,Europe/Helsinki
1000,1000,Takamaantie,,60.43086091,22.27302753,FÖLI,,0,,Europe/Helsinki
5469,5469,Eteläkaari,,60.46921048,22.39285396,FÖLI,,0,,Europe/Helsinki
1782,1782,Mikkelinkuja,,60.54645976,22.30648234,FÖLI,,0,,Europe/Helsinki
1012,1012,Vienola,,60.45506,22.20306,FÖLI,,0,,Europe/Helsinki
660,660,Linnasmäenpuisto,,60.48131489,22.30751859,FÖLI,,0,,Europe/Helsinki
5232,5232,Välitie,,60.45901587,22.45085924,FÖLI,,0,,Europe/Helsinki
1053,1053,Kähärintie,,60.457009,22.248375,FÖLI,,0,,Europe/Helsinki
5224,5224,Lahoniityntie,,60.47903988,22.45914278,FÖLI,,0,,Europe/Helsinki
4081,4081,Vähä-Silvolantie,,60.62595015,22.2806184,FÖLI,,0,,Europe/Helsinki
649,649,Prykinkuja,,60.48980533,22.2811606,FÖLI,,0,,Europe/Helsinki
114,114,Akatemiantalo,,60.4513246,22.28089541,FÖLI,,0,,Europe/Helsinki
78,78,Wärtsilänpolku,,60.43483416,22.24376051,FÖLI,,0,,Europe/Helsinki
695,695,Lausteenpuisto,,60.43065902,22.34041077,FÖLI,,0,,Europe/Helsinki
5402,5402,Hevoshaantie,,60.555281,22.67605024,FÖLI,,0,,Europe/Helsinki
237,237,Messinkikatu,,60.48855527,22.32574854,FÖLI,,0,,Europe/Helsinki
5108,5108,Mannintie,,60.56625732,22.44809637,FÖLI,,0,,Europe/Helsinki
829,829,Kraatarinkatu,,60.44752121,22.35264013,FÖLI,,0,,Europe/Helsinki
10,10,Sairashuoneenpuisto,,60.44418516,22.25232645,FÖLI,,0,,Europe/Helsinki
1191,1191,Tanhuankatu,,60.45430185,22.32524019,FÖLI,,0,,Europe/Helsinki
1754,1754,Omenatarha,,60.37542649,22.13100814,FÖLI,,0,,Europe/Helsinki
675,675,Nuorisotalo,,60.44866893,22.17058789,FÖLI,,0,,Europe/Helsinki
487,487,Varnankatu,,60.46342608,22.21719097,FÖLI,,0,,Europe/Helsinki
170,170,Portsa,,60.44681607,22.24468034,FÖLI,,0,,Europe/Helsinki
5190,5190,Sallintie,,60.51716452,22.4601974,FÖLI,,0,,Europe/Helsinki
1524,1524,Messukeskus,,60.45069904,22.18342766,FÖLI,,0,,Europe/Helsinki
632,632,Uudenmaantie,,60.44383724,22.28525912,FÖLI,,0,,Europe/Helsinki
3285,3285,Kirkkolahti,,60.37973262,21.94519799,FÖLI,,0,,Europe/Helsinki
755,755,Paattistentie,,60.53454396,22.30689751,FÖLI,,0,,Europe/Helsinki
970,970,Artukainen,,60.45223727,22.1866761,FÖLI,,0,,Europe/Helsinki
5229,5229,Lahoniityntie,,60.47945966,22.46249008,FÖLI,,0,,Europe/Helsinki
5146,5146,Rynkö,,60.5192653,22.50199265,FÖLI,,0,,Europe/Helsinki
638,638,Toivolankatu,,60.43785399,22.26868027,FÖLI,,0,,Europe/Helsinki
879,879,Pääskyvuori,,60.44329485,22.33361199,FÖLI,,0,,Europe/Helsinki
T1,T1,Kauppatori,,60.45012342,22.26758358,FÖLI,,0,,Europe/Helsinki
4008,4008,Viherkoski,,60.516627,22.22421493,FÖLI,,0,,Europe/Helsinki
2137,2137,Leppälinnunkuja,,60.49441384,22.09669411,FÖLI,,0,,Europe/Helsinki
1966,1966,Saga-palvelutalo,,60.43833495,22.2819644,FÖLI,,0,,Europe/Helsinki
491,491,Itäkaari,,60.43168647,22.32844042,FÖLI,,0,,Europe/Helsinki
3114,3114,Taimon koulu,,60.48329188,22.03873673,FÖLI,,0,,Europe/Helsinki
305,305,Marjamäentie,,60.40492552,22.2108393,FÖLI,,0,,Europe/Helsinki
1124,1124,Kreivilän koulu,,60.5835626,22.35525594,FÖLI,,0,,Europe/Helsinki
1123,1123,Tiravantie,,60.58140645,22.35245965,FÖLI,,0,,Europe/Helsinki
3268,3268,Uotilantie,,60.42482019,21.89756227,FÖLI,,0,,Europe/Helsinki
1500,1500,Vaala,,60.43634291,22.36129795,FÖLI,,0,,Europe/Helsinki
3097,3097,Lietsala,,60.48608019,22.0704563,FÖLI,,0,,Europe/Helsinki
214,214,Elinantie,,60.4605499,22.30531512,FÖLI,,0,,Europe/Helsinki
2057,2057,Kerttulakoti,,60.50333078,22.14790798,FÖLI,,0,,Europe/Helsinki
440,440,Uimahalli,,60.4765003,22.25969049,FÖLI,,0,,Europe/Helsinki
2125,2125,IKEA,,60.49302278,22.22840528,FÖLI,,0,,Europe/Helsinki
1706,1706,Katariinakoti,,60.41546277,22.29008429,FÖLI,,0,,Europe/Helsinki
3137,3137,Ylttistentie,,60.41383225,21.89761465,FÖLI,,0,,Europe/Helsinki
1294,1294,Naulatalontie,,60.35264689,22.18043431,FÖLI,,0,,Europe/Helsinki
6345,6345,Koroinen,,60.42788942,22.51397365,FÖLI,,0,,Europe/Helsinki
1122,1122,Auvaismäentie,,60.57506547,22.34902396,FÖLI,,0,,Europe/Helsinki
957,957,Runosmäen terveysasema,,60.48571037,22.26787288,FÖLI,,0,,Europe/Helsinki
1589,1589,Leipäläntie,,60.47248394,22.28253381,FÖLI,,0,,Europe/Helsinki
190,190,Hiidenkatu,,60.48993025,22.2864634,FÖLI,,0,,Europe/Helsinki
1732,1732,Anniitunkatu,,60.40924395,22.22790874,FÖLI,,0,,Europe/Helsinki
22,22,Rieskalähteentie,,60.46463577,22.25474172,FÖLI,,0,,Europe/Helsinki
1972,1972,Kupittaan urheiluhalli,,60.44561755,22.29237062,FÖLI,,0,,Europe/Helsinki
6603,6603,ABC Tammisilta,,60.44614863,22.60615313,V-S ELY,,0,,Europe/Helsinki
525,525,Annanpuisto,,60.44951599,22.24173674,FÖLI,,0,,Europe/Helsinki
6342,6342,Pontelanmäki,,60.42265665,22.52675037,FÖLI,,0,,Europe/Helsinki
1541,1541,Alakyläntie,,60.45769422,22.22682904,FÖLI,,0,,Europe/Helsinki
6341,6341,Pontelanmäki,,60.422578,22.52601574,FÖLI,,0,,Europe/Helsinki
144,144,Rautatieasema,,60.45333291,22.25344564,FÖLI,,0,,Europe/Helsinki
1308,1308,Kivelänperäntie,,60.3612881,22.12063268,FÖLI,,0,,Europe/Helsinki
1332,1332,Halistentie,,60.45845488,22.30760253,FÖLI,,0,,Europe/Helsinki
6719,6719,Sporentie,,60.47627591,22.69827667,V-S ELY,,0,,Europe/Helsinki
6112,6112,Auranlaakso,,60.46923802,22.35768705,FÖLI,,0,,Europe/Helsinki
772,772,Pernon koulu,,60.45327452,22.15728739,FÖLI,,0,,Europe/Helsinki
404,404,Särkilahden koulu,,60.41455487,22.19165735,FÖLI,,0,,Europe/Helsinki
460,460,Siirtolapuutarha,,60.42172839,22.29361317,FÖLI,,0,,Europe/Helsinki
1581,1581,Prykinkuja,,60.49016472,22.27963222,FÖLI,,0,,Europe/Helsinki
3235,3235,Herttula,,60.43555835,22.04133723,FÖLI,,0,,Europe/Helsinki
1711,1711,Taivassalonkatu,,60.41212716,22.29211274,FÖLI,,0,,Europe/Helsinki
8013,8013,Lahto,,60.63459639,22.58930335,V-S ELY,,0,,Europe/Helsinki
92,92,Heisitie,,60.41990234,22.23879974,FÖLI,,0,,Europe/Helsinki
1157,1157,Jokelantie,,60.63817128,22.41935995,FÖLI,,0,,Europe/Helsinki
6257,6257,Koulutie,,60.42668569,22.52734138,FÖLI,,0,,Europe/Helsinki
2008,2008,Raision kaupungintalo,,60.48471382,22.17226947,FÖLI,,0,,Europe/Helsinki
548,548,Kuuvantie,,60.42695685,22.12066735,FÖLI,,0,,Europe/Helsinki
2006,2006,Raision kirkko,,60.4837133,22.1754249,FÖLI,,0,,Europe/Helsinki
261,261,Riimukatu,,60.49126319,22.32913007,FÖLI,,0,,Europe/Helsinki
6680,6680,Tikantie,,60.44668329,22.70761847,V-S ELY,,0,,Europe/Helsinki
4038,4038,Sattontie,,60.55204529,22.2245333,FÖLI,,0,,Europe/Helsinki
73,73,Martinsilta,,60.44342786,22.25680443,FÖLI,,0,,Europe/Helsinki
446,446,Kuraattorinpolku,,60.46398416,22.29436688,FÖLI,,0,,Europe/Helsinki
1739,1739,Vihuri,,60.3950496,22.2262299,FÖLI,,0,,Europe/Helsinki
1530,1530,Länsikeskus,,60.47319067,22.22545891,FÖLI,,0,,Europe/Helsinki
5226,5226,Ketola,,60.47492268,22.4633616,FÖLI,,0,,Europe/Helsinki
6668,6668,Kyysilä,,60.48076008,22.73962372,V-S ELY,,0,,Europe/Helsinki
2024,2024,Tikanmaa,,60.48844313,22.11625922,FÖLI,,0,,Europe/Helsinki
1756,1756,Kakskerran koulu,,60.36743532,22.17541363,FÖLI,,0,,Europe/Helsinki
1841,1841,Tanssilava,,60.42229997,22.25430587,FÖLI,,0,,Europe/Helsinki
1011,1011,Pansiontie,,60.44455965,22.22586681,FÖLI,,0,,Europe/Helsinki
2083,2083,Hahdenniemi,,60.46381951,22.10807581,FÖLI,,0,,Europe/Helsinki
1093,1093,Myllyoja,,60.52298015,22.34682507,FÖLI,,0,,Europe/Helsinki
5464,5464,Tuomistonkuja,,60.58715104,22.73661231,FÖLI,,0,,Europe/Helsinki
2118,2118,Kauppakeskus Mylly,,60.49162984,22.20016195,FÖLI,,0,,Europe/Helsinki
6231,6231,Puostantie,,60.42260671,22.51539369,FÖLI,,0,,Europe/Helsinki
1031,1031,Hammasklinikka,,60.45010712,22.29119171,FÖLI,,0,,Europe/Helsinki
1318,1318,Vastilantie,,60.37917337,22.14960905,FÖLI,,0,,Europe/Helsinki
540,540,Pikku-Pukintie,,60.43052951,22.16331652,FÖLI,,0,,Europe/Helsinki
8022,8022,Aura (Yhdystie),,60.64906198,22.58721253,V-S ELY,,0,,Europe/Helsinki
6096,6096,Uusi Littoistentie,,60.44663131,22.37456775,FÖLI,,0,,Europe/Helsinki
1790,1790,Kiiraskuja,,60.5432718,22.29944332,FÖLI,,0,,Europe/Helsinki
2099,2099,Ihalan kenttä,,60.47156729,22.17868917,FÖLI,,0,,Europe/Helsinki
541,541,Tammimäki,,60.42899942,22.15808733,FÖLI,,0,,Europe/Helsinki
761,761,Härkämäki,,60.46238469,22.19602275,FÖLI,,0,,Europe/Helsinki
6003,6003,Hartwall,,60.41473031,22.32153289,FÖLI,,0,,Europe/Helsinki
277,277,Solkitarha,,60.47956256,22.29735237,FÖLI,,0,,Europe/Helsinki
1399,1399,Mäenpääntie,,60.65032621,22.42751912,FÖLI,,0,,Europe/Helsinki
1184,1184,Ollinkuja,,60.35670312,22.27475215,FÖLI,,0,,Europe/Helsinki
379,379,Brinkhallintie,,60.35898748,22.17577541,FÖLI,,0,,Europe/Helsinki
694,694,Fiskarsinkatu,,60.43480663,22.33050203,FÖLI,,0,,Europe/Helsinki
1534,1534,Rakennusmestarintie,,60.47964684,22.22246772,FÖLI,,0,,Europe/Helsinki
430,430,Moikoinen,,60.41194483,22.23527493,FÖLI,,0,,Europe/Helsinki
177,177,Kastunpuisto,,60.46715026,22.2763898,FÖLI,,0,,Europe/Helsinki
2122,2122,Itäniityntie,,60.48955983,22.21009055,FÖLI,,0,,Europe/Helsinki
3147,3147,Taipaleentie,,60.38381747,21.9289753,FÖLI,,0,,Europe/Helsinki
6284,6284,Mallaskatu,,60.41271213,22.32856762,FÖLI,,0,,Europe/Helsinki
579,579,Vaasanpuisto,,60.44594591,22.22992142,FÖLI,,0,,Europe/Helsinki
752,752,Latokartanonkatu,,60.44785777,22.22707432,FÖLI,,0,,Europe/Helsinki
944,944,Vähäheikkiläntie,,60.43170481,22.25784329,FÖLI,,0,,Europe/Helsinki
168,168,Annankatu,,60.4445977,22.23796277,FÖLI,,0,,Europe/Helsinki
6188,6188,Paavolantie,,60.40686457,22.54742227,FÖLI,,0,,Europe/Helsinki
1709,1709,Taivassalonkatu,,60.41212597,22.29309457,FÖLI,,0,,Europe/Helsinki
2085,2085,Rankio,,60.46405689,22.15485828,FÖLI,,0,,Europe/Helsinki
289,289,Samppalinna,,60.44790692,22.26947184,FÖLI,,0,,Europe/Helsinki
317,317,Metsäpolku,,60.39694641,22.17247256,FÖLI,,0,,Europe/Helsinki
229,229,Siirintie,,60.46866881,22.28168649,FÖLI,,0,,Europe/Helsinki
648,648,Lentäjäntie,,60.51026909,22.280932,FÖLI,,0,,Europe/Helsinki
6207,6207,Hoviranta,,60.40242728,22.3784566,FÖLI,,0,,Europe/Helsinki
1001,1001,Jäkäläpolku,,60.42835844,22.27117268,FÖLI,,0,,Europe/Helsinki
1009,1009,Kanslerintie,,60.44563445,22.22199625,FÖLI,,0,,Europe/Helsinki
6623,6623,Silkkikivi,,60.44683383,22.70086718,V-S ELY,,0,,Europe/Helsinki
6079,6079,Tennus,,60.44295173,22.41708527,FÖLI,,0,,Europe/Helsinki
219,219,Kåren,,60.45016985,22.27673162,FÖLI,,0,,Europe/Helsinki
5035,5035,Kisakalliontie,,60.51156383,22.46811143,FÖLI,,0,,Europe/Helsinki
3056,3056,Kirkonsalmentie,,60.47926497,21.87226468,FÖLI,,0,,Europe/Helsinki
739,739,Paavolanaukio,,60.45655264,22.17351075,FÖLI,,0,,Europe/Helsinki
554,554,Resiinakatu,,60.45487032,22.24639452,FÖLI,,0,,Europe/Helsinki
181,181,Tengströminkatu,,60.47971195,22.28581772,FÖLI,,0,,Europe/Helsinki
256,256,Haaga,,60.49612283,22.3547104,FÖLI,,0,,Europe/Helsinki
1290,1290,Kesäniementie,,60.34745767,22.20273868,FÖLI,,0,,Europe/Helsinki
1269,1269,Varvintie,,60.36430517,22.19795199,FÖLI,,0,,Europe/Helsinki
139,139,Urheilupuisto,,60.43937751,22.26147163,FÖLI,,0,,Europe/Helsinki
3286,3286,Herralantie,,60.38773231,21.95454811,FÖLI,,0,,Europe/Helsinki
209,209,Arvinkatu,,60.44615689,22.24233829,FÖLI,,0,,Europe/Helsinki
871,871,Paljetie,,60.45063567,22.30232645,FÖLI,,0,,Europe/Helsinki
787,787,Skanssinmäki,,60.42694562,22.30997141,FÖLI,,0,,Europe/Helsinki
238,238,Riimukatu,,60.49150395,22.32984251,FÖLI,,0,,Europe/Helsinki
1571,1571,Tiemestarinkatu,,60.49194186,22.27295855,FÖLI,,0,,Europe/Helsinki
985,985,Munterinkatu,,60.48820652,22.25817879,FÖLI,,0,,Europe/Helsinki
667,667,Pansio,,60.44745357,22.14363183,FÖLI,,0,,Europe/Helsinki
2059,2059,Raision sairaala,,60.50414063,22.14249921,FÖLI,,0,,Europe/Helsinki
2071,2071,Raision koulukeskus,,60.48206547,22.16420996,FÖLI,,0,,Europe/Helsinki
63,63,Savikatu,,60.45551254,22.30142029,FÖLI,,0,,Europe/Helsinki
5163,5163,Yliskulma,,60.54129366,22.58250626,FÖLI,,0,,Europe/Helsinki
69,69,Haarlan koulu,,60.3935474,22.21871018,FÖLI,,0,,Europe/Helsinki
397,397,Apajantie,,60.37699591,22.16041242,FÖLI,,0,,Europe/Helsinki
407,407,Kuusikkokuja,,60.41006667,22.18515864,FÖLI,,0,,Europe/Helsinki
456,456,Ilpoinen,,60.41842933,22.28550882,FÖLI,,0,,Europe/Helsinki
462,462,Mustionkatu,,60.4359162,22.32421192,FÖLI,,0,,Europe/Helsinki
1391,1391,Tekkalantie,,60.56645163,22.35285766,FÖLI,,0,,Europe/Helsinki
6310,6310,Empola,,60.38958008,22.38594869,FÖLI,,0,,Europe/Helsinki
1725,1725,Pampinkatu,,60.41403899,22.24404009,FÖLI,,0,,Europe/Helsinki
490,490,Talinkorventie,,60.46572744,22.22619329,FÖLI,,0,,Europe/Helsinki
1212,1212,Uittamo City,,60.42128622,22.26420075,FÖLI,,0,,Europe/Helsinki
5045,5045,Verkatehdas,,60.44973293,22.40570038,FÖLI,,0,,Europe/Helsinki
3169,3169,Sattirauma,,60.33956609,21.9782614,FÖLI,,0,,Europe/Helsinki
798,798,Markulantie,,60.47180232,22.22861385,FÖLI,,0,,Europe/Helsinki
3099,3099,Kiiainen,,60.5388293,21.76337454,FÖLI,,0,,Europe/Helsinki
6678,6678,Tikantie,,60.44620156,22.7080096,V-S ELY,,0,,Europe/Helsinki
5080,5080,Kopinnonkuja,,60.51649544,22.41101881,FÖLI,,0,,Europe/Helsinki
1281,1281,Orvontie,,60.36430693,22.27796938,FÖLI,,0,,Europe/Helsinki
1029,1029,Ieskatu,,60.4628428,22.20074375,FÖLI,,0,,Europe/Helsinki
1806,1806,Pohjola,,60.4574455,22.25220493,FÖLI,,0,,Europe/Helsinki
626,626,Taskulantie,,60.47334062,22.27880296,FÖLI,,0,,Europe/Helsinki
4082,4082,Vähä-Silvolantie,,60.62580961,22.28071218,FÖLI,,0,,Europe/Helsinki
6715,6715,Luciantie,,60.46995822,22.69774886,V-S ELY,,0,,Europe/Helsinki
6181,6181,Heernummentie,,60.41797599,22.53913802,FÖLI,,0,,Europe/Helsinki
765,765,Paattistentie,,60.53458229,22.30670948,FÖLI,,0,,Europe/Helsinki
1101,1101,Ruskonojantie,,60.54653271,22.33982179,FÖLI,,0,,Europe/Helsinki
4007,4007,Viherkoski,,60.51768562,22.22414993,FÖLI,,0,,Europe/Helsinki
975,975,Kustavintie,,60.467934,22.22479407,FÖLI,,0,,Europe/Helsinki
1154,1154,Mäkeläntie,,60.65413238,22.43051307,FÖLI,,0,,Europe/Helsinki
5314,5314,Tuulenpaltanmäki,,60.50857603,22.56199489,FÖLI,,0,,Europe/Helsinki
4062,4062,Kierikkalantie,,60.60160734,22.29090917,FÖLI,,0,,Europe/Helsinki
338,338,Kaupunginteatteri,,60.44633684,22.26425933,FÖLI,,0,,Europe/Helsinki
6227,6227,Sipilä,,60.42006868,22.48820038,FÖLI,,0,,Europe/Helsinki
1080,1080,Moision koulu,,60.5287658,22.29295777,FÖLI,,0,,Europe/Helsinki
6374,6374,Muurikinkatu,,60.45715115,22.37512541,FÖLI,,0,,Europe/Helsinki
4001,4001,Rotanvuori,,60.50732605,22.23187715,FÖLI,,0,,Europe/Helsinki
1498,1498,Nosturikatu,,60.44237936,22.23075475,FÖLI,,0,,Europe/Helsinki
692,692,Ahtolantie,,60.43822886,22.32120459,FÖLI,,0,,Europe/Helsinki
6070,6070,Sidoskatu,,60.42855274,22.38337974,FÖLI,,0,,Europe/Helsinki
354,354,Skanssinkatu,,60.42988339,22.31935089,FÖLI,,0,,Europe/Helsinki
3041,3041,Heikinmäki,,60.45948043,21.90740783,FÖLI,,0,,Europe/Helsinki
1749,1749,Vatakuja,,60.40236831,22.24478369,FÖLI,,0,,Europe/Helsinki
6111,6111,Auranlaakson koulu,,60.46937725,22.3670999,FÖLI,,0,,Europe/Helsinki
2112,2112,Alhaistenoja,,60.47601365,22.15480211,FÖLI,,0,,Europe/Helsinki
6161,6161,Sipiläntie,,60.42460908,22.47922394,FÖLI,,0,,Europe/Helsinki
32,32,Palloiluhalli,,60.47880966,22.24931542,FÖLI,,0,,Europe/Helsinki
135,135,Tähtitorninkatu,,60.44533459,22.28007374,FÖLI,,0,,Europe/Helsinki
302,302,Lyijykatu,,60.50349278,22.31845228,FÖLI,,0,,Europe/Helsinki
1045,1045,Urheiluhalli,,60.44729513,22.29709554,FÖLI,,0,,Europe/Helsinki
5227,5227,Ketola,,60.47489122,22.46349349,FÖLI,,0,,Europe/Helsinki
395,395,Erikvalla,,60.35679429,22.11384598,FÖLI,,0,,Europe/Helsinki
5103,5103,Nautelankoski,,60.5607509,22.44742938,FÖLI,,0,,Europe/Helsinki
1816,1816,Savenvalajankatu,,60.44245344,22.25166985,FÖLI,,0,,Europe/Helsinki
5339,5339,Taipaleentie,,60.55686827,22.5349189,FÖLI,,0,,Europe/Helsinki
1098,1098,Jäkärlän puistokatu,,60.53703249,22.35199355,FÖLI,,0,,Europe/Helsinki
2002,2002,Huhko,,60.47796568,22.19699322,FÖLI,,0,,Europe/Helsinki
4054,4054,Ojalantie,,60.5824361,22.26567207,FÖLI,,0,,Europe/Helsinki
2108,2108,Alhainen,,60.47943886,22.15379827,FÖLI,,0,,Europe/Helsinki
6189,6189,Viukkala,,60.40330423,22.54981752,FÖLI,,0,,Europe/Helsinki
5012,5012,Sillilä,,60.49316125,22.41503415,FÖLI,,0,,Europe/Helsinki
1826,1826,Nummen koulu,,60.46156408,22.29610158,FÖLI,,0,,Europe/Helsinki
251,251,Kullanmäentie,,60.49961562,22.33067819,FÖLI,,0,,Europe/Helsinki
1698,1698,Kölikatu,,60.42968496,22.23680215,FÖLI,,0,,Europe/Helsinki
5144,5144,Ankka,,60.51804558,22.49701968,FÖLI,,0,,Europe/Helsinki
448,448,Ylioppilaskylä,,60.46116614,22.29756115,FÖLI,,0,,Europe/Helsinki
3051,3051,Iskolantie,,60.47114589,21.87418658,FÖLI,,0,,Europe/Helsinki
8920,8920,"Taalintehdas, Tallimäentie",,60.01990713,22.50549431,V-S ELY,,0,,Europe/Helsinki
2050,2050,Huuhkajantie,,60.48503762,22.09505144,FÖLI,,0,,Europe/Helsinki
369,369,Ekvalla,,60.37984935,22.22308341,FÖLI,,0,,Europe/Helsinki
429,429,Puomikuja,,60.42495198,22.20219509,FÖLI,,0,,Europe/Helsinki
42,42,Puutori,,60.45462627,22.26905672,FÖLI,,0,,Europe/Helsinki
1060,1060,Vaistentie,,60.51519518,22.29259673,FÖLI,,0,,Europe/Helsinki
3311,3311,Murikko,,60.49208669,22.06365512,FÖLI,,0,,Europe/Helsinki
1761,1761,Harjattulantie,,60.37241144,22.27681231,FÖLI,,0,,Europe/Helsinki
1550,1550,Eskonpolku,,60.47937265,22.24267473,FÖLI,,0,,Europe/Helsinki
6640,6640,Herrankartano,,60.42873592,22.67216843,V-S ELY,,0,,Europe/Helsinki
6252,6252,Kuurnapää,,60.43394961,22.59252585,FÖLI,,0,,Europe/Helsinki
3098,3098,Murikko,,60.48820548,22.06641515,FÖLI,,0,,Europe/Helsinki
267,267,Maarian kirkko,,60.4740909,22.29135222,FÖLI,,0,,Europe/Helsinki
6331,6331,Krapilantie,,60.399933,22.5057285,FÖLI,,0,,Europe/Helsinki
6314,6314,Metsätie,,60.39047695,22.37038079,FÖLI,,0,,Europe/Helsinki
6373,6373,Muurikinkatu,,60.45604602,22.37591997,FÖLI,,0,,Europe/Helsinki
6048,6048,Kaarinan lukio,,60.40796928,22.38323063,FÖLI,,0,,Europe/Helsinki
1531,1531,Länsikeskus,,60.47304445,22.22664612,FÖLI,,0,,Europe/Helsinki
1097,1097,Kylmäalhonkatu,,60.53829937,22.36151991,FÖLI,,0,,Europe/Helsinki
892,892,Ruohonpääntie,,60.46000862,22.23169563,FÖLI,,0,,Europe/Helsinki
1231,1231,Vajossuonkatu,,60.49978737,22.29545565,FÖLI,,0,,Europe/Helsinki
PT6,PT6,Puutori,,60.4548,22.26923622,FÖLI,,0,,Europe/Helsinki
PT3,PT3,Puutori,,60.45505811,22.26881174,FÖLI,,0,,Europe/Helsinki
2019,2019,Pirilä,,60.48755908,22.13066144,FÖLI,,0,,Europe/Helsinki
1245,1245,Kalliolantie,,60.35361372,22.2398687,FÖLI,,0,,Europe/Helsinki
428,428,Puomikuja,,60.42439643,22.2017497,FÖLI,,0,,Europe/Helsinki
3231,3231,Haijainen,,60.44051755,21.99728551,FÖLI,,0,,Europe/Helsinki
6285,6285,Ahmankatu,,60.41100982,22.33282947,FÖLI,,0,,Europe/Helsinki
1635,1635,Halisten ostoskeskus,,60.46920412,22.30699447,FÖLI,,0,,Europe/Helsinki
827,827,Liinahaankatu,,60.46911415,22.24494441,FÖLI,,0,,Europe/Helsinki
1096,1096,Jäkärlän puistokatu,,60.53722104,22.35379129,FÖLI,,0,,Europe/Helsinki
5137,5137,Vanha Maariantie,,60.53849887,22.37709405,FÖLI,,0,,Europe/Helsinki
1558,1558,Nättinummi,,60.48544722,22.24635652,FÖLI,,0,,Europe/Helsinki
3087,3087,Niittula,,60.48823664,21.72831559,FÖLI,,0,,Europe/Helsinki
148,148,Posti,,60.44943062,22.26277056,FÖLI,,0,,Europe/Helsinki
5185,5185,Halssinkuja,,60.51689498,22.47050171,FÖLI,,0,,Europe/Helsinki
1353,1353,Ojarinne,,60.43479508,22.24493053,FÖLI,,0,,Europe/Helsinki
399,399,Ruuhikuja,,60.42375294,22.2195765,FÖLI,,0,,Europe/Helsinki
8101,8101,Kirjala E,,60.35853451,22.35749805,V-S ELY,,0,,Europe/Helsinki
1041,1041,Karhunaukio,,60.43089769,22.33644778,FÖLI,,0,,Europe/Helsinki
569,569,Rauhalantie,,60.43315944,22.1760597,FÖLI,,0,,Europe/Helsinki
561,561,Birkka,,60.42741839,22.13276689,FÖLI,,0,,Europe/Helsinki
1358,1358,Kylmäalhonkatu,,60.5383738,22.36236693,FÖLI,,0,,Europe/Helsinki
1302,1302,Artukantie,,60.37768016,22.13779042,FÖLI,,0,,Europe/Helsinki
6663,6663,Paimion sairaala,,60.46680249,22.73206315,V-S ELY,,0,,Europe/Helsinki
3113,3113,Nuhjalantie,,60.48627066,22.03735125,FÖLI,,0,,Europe/Helsinki
8139,8139,Österby L,,60.31420912,22.32438495,V-S ELY,,0,,Europe/Helsinki
1733,1733,Riistakatu,,60.4104916,22.23461534,FÖLI,,0,,Europe/Helsinki
5112,5112,Lieto as,,60.5707369,22.43844176,FÖLI,,0,,Europe/Helsinki
6,6,Sähkölaitos,,60.43831871,22.23837412,FÖLI,,0,,Europe/Helsinki
735,735,Pernon koulu,,60.45240198,22.1580183,FÖLI,,0,,Europe/Helsinki
678,678,Messukentänkatu,,60.44849319,22.17962343,FÖLI,,0,,Europe/Helsinki
5004,5004,Vanhalinna,,60.48051818,22.38268579,FÖLI,,0,,Europe/Helsinki
447,447,Korvalankatu,,60.46288801,22.29718413,FÖLI,,0,,Europe/Helsinki
424,424,Marjamäentie,,60.40510428,22.21155819,FÖLI,,0,,Europe/Helsinki
1547,1547,Kuninkojantie,,60.48290972,22.23197105,FÖLI,,0,,Europe/Helsinki
532,532,Vapaavarasto,,60.44393554,22.21325664,FÖLI,,0,,Europe/Helsinki
4060,4060,Hyrköinen,,60.59844222,22.28758639,FÖLI,,0,,Europe/Helsinki
992,992,Liisankatu,,60.43325711,22.27695368,FÖLI,,0,,Europe/Helsinki
1755,1755,Kakskerran koulu,,60.36679188,22.1760173,FÖLI,,0,,Europe/Helsinki
1230,1230,Urushaara,,60.49856384,22.29543283,FÖLI,,0,,Europe/Helsinki
6228,6228,Sipilä,,60.42019876,22.48700058,FÖLI,,0,,Europe/Helsinki
1480,1480,Pikikurjentie,,60.42251657,22.20148172,FÖLI,,0,,Europe/Helsinki
6085,6085,Puistonkulma,,60.44590372,22.40311246,FÖLI,,0,,Europe/Helsinki
8113,8113,Kalakouluntie E,,60.32544229,22.3462353,V-S ELY,,0,,Europe/Helsinki
1572,1572,Varusmestarintie,,60.49293936,22.26687185,FÖLI,,0,,Europe/Helsinki
58,58,Hannunniitty,,60.45881687,22.32247802,FÖLI,,0,,Europe/Helsinki
6628,6628,Mäkiläntie,,60.44497128,22.70080446,V-S ELY,,0,,Europe/Helsinki
1321,1321,Seuraintalo,,60.37620526,22.16931963,FÖLI,,0,,Europe/Helsinki
980,980,Toukolanpuistikko,,60.47824631,22.26908984,FÖLI,,0,,Europe/Helsinki
941,941,Kupittaankatu,,60.43741249,22.25855631,FÖLI,,0,,Europe/Helsinki
2054,2054,Lautamies,,60.48989101,22.16577577,FÖLI,,0,,Europe/Helsinki
693,693,Laihasmäentie,,60.46953772,22.26842978,FÖLI,,0,,Europe/Helsinki
3194,3194,Järvenperäntie,,60.39994835,21.86220198,FÖLI,,0,,Europe/Helsinki
1153,1153,Perttelmäentie,,60.65835528,22.43255111,FÖLI,,0,,Europe/Helsinki
570,570,Kansanpuistontie,,60.4340222,22.18100729,FÖLI,,0,,Europe/Helsinki
2145,2145,Peltopohjankatu,,60.489807,22.202473,FÖLI,,0,,Europe/Helsinki
5230,5230,Suopohja,,60.46108457,22.45799651,FÖLI,,0,,Europe/Helsinki
5187,5187,Kisakallion päiväkoti,,60.51653516,22.46573797,FÖLI,,0,,Europe/Helsinki
188,188,Ruopanhaara,,60.49552371,22.29386946,FÖLI,,0,,Europe/Helsinki
2080,2080,Nuorikkala,,60.47210145,22.14589698,FÖLI,,0,,Europe/Helsinki
25,25,Taalinpellonkatu,,60.47180056,22.25168997,FÖLI,,0,,Europe/Helsinki
1641,1641,Jaanintie,,60.46315767,22.33139265,FÖLI,,0,,Europe/Helsinki
98,98,Majakkaranta,,60.43085143,22.24025092,FÖLI,,0,,Europe/Helsinki
127,127,Pikisaari,,60.42697008,22.20529827,FÖLI,,0,,Europe/Helsinki
3011,3011,Naantalin kylpylä,,60.47340757,22.03507581,FÖLI,,0,,Europe/Helsinki
1604,1604,Ketarantie,,60.45849099,22.27357248,FÖLI,,0,,Europe/Helsinki
282,282,Laskiaiskatu,,60.54330647,22.30170159,FÖLI,,0,,Europe/Helsinki
1317,1317,Kotiahontie,,60.37799516,22.14197507,FÖLI,,0,,Europe/Helsinki
202,202,Oskarinkuja,,60.46340907,22.27003377,FÖLI,,0,,Europe/Helsinki
6256,6256,Kerätie,,60.43685823,22.59404106,FÖLI,,0,,Europe/Helsinki
1570,1570,Tiemestarinkatu,,60.49144265,22.2745986,FÖLI,,0,,Europe/Helsinki
391,391,Suvilinnantie,,60.39119238,22.22072773,FÖLI,,0,,Europe/Helsinki
434,434,Pyhän Ristin kappeli,,60.42704069,22.31292216,FÖLI,,0,,Europe/Helsinki
T83,T83,Keskusta,,60.45021852,22.26949897,FÖLI,,0,,Europe/Helsinki
3250,3250,Koverinlahdentie,,60.43270459,21.86293342,FÖLI,,0,,Europe/Helsinki
5344,5344,Alhontie,,60.45823542,22.43751688,FÖLI,,0,,Europe/Helsinki
1507,1507,Hyrköistentie,,60.45208615,22.15897558,FÖLI,,0,,Europe/Helsinki
537,537,Kansanpuistontie,,60.43434577,22.18199627,FÖLI,,0,,Europe/Helsinki
6369,6369,Kultanummen kenttä,,60.45836648,22.36845349,FÖLI,,0,,Europe/Helsinki
6606,6606,Kumparla,,60.44832882,22.60984283,V-S ELY,,0,,Europe/Helsinki
3304,3304,Meinikkalantie,,60.30006562,21.94055812,FÖLI,,0,,Europe/Helsinki
592,592,Liljalaakso,,60.49640753,22.24334494,FÖLI,,0,,Europe/Helsinki
4091,4091,Pässinkaari,,60.53498926,22.24489883,FÖLI,,0,,Europe/Helsinki
5428,5428,Alikulmantie,,60.57690148,22.76132681,FÖLI,,0,,Europe/Helsinki
1272,1272,Lehtikuusitie,,60.36609072,22.22577323,FÖLI,,0,,Europe/Helsinki
622,622,Valkiasvuorenkatu,,60.48196761,22.2804615,FÖLI,,0,,Europe/Helsinki
6380,6380,Tappikatu,,60.44867998,22.38126396,FÖLI,,0,,Europe/Helsinki
714,714,Uusi Hautausmaa,,60.43612182,22.3114116,FÖLI,,0,,Europe/Helsinki
6631,6631,Vesitornintie,,60.44184951,22.69015796,V-S ELY,,0,,Europe/Helsinki
1189,1189,Hannunniittu,,60.45861228,22.32356337,FÖLI,,0,,Europe/Helsinki
6191,6191,Kalanderinahde,,60.39834499,22.55634584,FÖLI,,0,,Europe/Helsinki
6087,6087,Verkakylä,,60.44486095,22.39583623,FÖLI,,0,,Europe/Helsinki
172,172,Koulukatu,,60.44966461,22.25268984,FÖLI,,0,,Europe/Helsinki
751,751,Otavanaukio,,60.45083818,22.23020352,FÖLI,,0,,Europe/Helsinki
1130,1130,Alakartanontie,,60.59694896,22.39155656,FÖLI,,0,,Europe/Helsinki
4025,4025,Knaapinmäki,,60.54388691,22.23347788,FÖLI,,0,,Europe/Helsinki
1116,1116,Suokallionkatu,,60.53848957,22.29386043,FÖLI,,0,,Europe/Helsinki
718,718,Turjanpuisto,,60.43541949,22.29712335,FÖLI,,0,,Europe/Helsinki
736,736,Pernontie,,60.45179281,22.1600569,FÖLI,,0,,Europe/Helsinki
3095,3095,Teersalo,,60.46773768,21.6952856,FÖLI,,0,,Europe/Helsinki
6208,6208,Hoviranta,,60.40232404,22.3791073,FÖLI,,0,,Europe/Helsinki
5049,5049,Mustavuorentie,,60.45273727,22.41069876,FÖLI,,0,,Europe/Helsinki
174,174,Autistenaukio,,60.46097224,22.26774908,FÖLI,,0,,Europe/Helsinki
423,423,Ruotsalantie,,60.40176975,22.20785095,FÖLI,,0,,Europe/Helsinki
1466,1466,Juhanankatu,,60.41512884,22.27307923,FÖLI,,0,,Europe/Helsinki
382,382,Kaivoinen,,60.37327852,22.18206547,FÖLI,,0,,Europe/Helsinki
5066,5066,Väänteläntie,,60.50168129,22.3710478,FÖLI,,0,,Europe/Helsinki
1333,1333,Nummenpuistokatu,,60.45670221,22.30150289,FÖLI,,0,,Europe/Helsinki
6717,6717,Vaakunamiehenkatu,,60.47347131,22.70216271,V-S ELY,,0,,Europe/Helsinki
830,830,Orminkuja,,60.45002831,22.35286358,FÖLI,,0,,Europe/Helsinki
6010,6010,Marsukatu,,60.40700782,22.31949962,FÖLI,,0,,Europe/Helsinki
6218,6218,Kuusistonkaari,,60.38446578,22.38416731,FÖLI,,0,,Europe/Helsinki
3138,3138,Ylttistentie,,60.41451104,21.8977263,FÖLI,,0,,Europe/Helsinki
3190,3190,Tammirannantie,,60.40772329,21.86906415,FÖLI,,0,,Europe/Helsinki
1232,1232,Urusvuori,,60.50217071,22.29726055,FÖLI,,0,,Europe/Helsinki
6036,6036,Hovirinta,,60.40363687,22.36440054,FÖLI,,0,,Europe/Helsinki
1173,1173,Männistöntie,,60.58649224,22.36711596,FÖLI,,0,,Europe/Helsinki
5018,5018,Vierunpuisto,,60.50139824,22.44233918,FÖLI,,0,,Europe/Helsinki
1149,1149,Tortinmäki,,60.68989696,22.44194919,FÖLI,,0,,Europe/Helsinki
6127,6127,Kalevalankatu,,60.45080913,22.37242552,FÖLI,,0,,Europe/Helsinki
T2,T2,Kauppatori,,60.44982059,22.26766413,FÖLI,,0,,Europe/Helsinki
767,767,Latokartanonkatu,,60.44781255,22.22731757,FÖLI,,0,,Europe/Helsinki
2084,2084,Hahdenniemi,,60.46339739,22.11077993,FÖLI,,0,,Europe/Helsinki
1119,1119,Auvaistentie,,60.56813586,22.34057817,FÖLI,,0,,Europe/Helsinki
6391,6391,Jumpurintie,,60.41382265,22.38429,FÖLI,,0,,Europe/Helsinki
6060,6060,Kesämäki,,60.41505722,22.39318612,FÖLI,,0,,Europe/Helsinki
5278,5278,Levauksenmäki,,60.58516868,22.42567581,FÖLI,,0,,Europe/Helsinki
360,360,Ylikyläntie,,60.41470936,22.23163347,FÖLI,,0,,Europe/Helsinki
5065,5065,Väänteläntie,,60.50159501,22.37244546,FÖLI,,0,,Europe/Helsinki
84,84,Syvälahti,,60.42349031,22.22678047,FÖLI,,0,,Europe/Helsinki
4035,4035,Paasniittu,,60.5427799,22.24855375,FÖLI,,0,,Europe/Helsinki
971,971,Ieskatu,,60.46231145,22.20022149,FÖLI,,0,,Europe/Helsinki
252,252,Maarian allas,,60.49681365,22.33230314,FÖLI,,0,,Europe/Helsinki
509,509,Siirtolapuutarha,,60.42167534,22.29338446,FÖLI,,0,,Europe/Helsinki
103,103,Tiilentekijänkatu,,60.43865537,22.25559114,FÖLI,,0,,Europe/Helsinki
3029,3029,Kultarannan koulu,,60.46140729,21.98581448,FÖLI,,0,,Europe/Helsinki
86,86,Hirvensalonsilta,,60.42068757,22.23386584,FÖLI,,0,,Europe/Helsinki
5126,5126,Jokilaakson koulun takapiha,,60.50644133,22.45233042,FÖLI,,0,,Europe/Helsinki
5068,5068,Kanahaka,,60.5022623,22.3758682,FÖLI,,0,,Europe/Helsinki
854,854,Luostarinmäki,,60.44657744,22.27228614,FÖLI,,0,,Europe/Helsinki
292,292,Sotalaistenkatu,,60.44358302,22.25485289,FÖLI,,0,,Europe/Helsinki
6236,6236,Toivonlinnantie,,60.42359195,22.52569435,FÖLI,,0,,Europe/Helsinki
806,806,Nosturinkatu,,60.44428976,22.23087447,FÖLI,,0,,Europe/Helsinki
576,576,Tuontikatu,,60.44743348,22.21501579,FÖLI,,0,,Europe/Helsinki
2065,2065,Kaanaa,,60.48573948,22.09408873,FÖLI,,0,,Europe/Helsinki
6375,6375,Littoistenjärvi,,60.45353794,22.37877081,FÖLI,,0,,Europe/Helsinki
L2,L2,"Linja-autoasema, laituri 2",,60.45668184,22.26744635,FÖLI,,0,,Europe/Helsinki
239,239,Paimalantie,,60.49392914,22.33430529,FÖLI,,0,,Europe/Helsinki
727,727,Nuorisotalo,,60.44921039,22.16965187,FÖLI,,0,,Europe/Helsinki
8972,8972,"Huotskär, Kittuis lauttaranta",,60.18724551,21.43759645,V-S ELY,,0,,Europe/Helsinki
5435,5435,Karhula,,60.55170178,22.71385435,FÖLI,,0,,Europe/Helsinki
3109,3109,Suovuori,,60.48880236,22.04786223,FÖLI,,0,,Europe/Helsinki
5081,5081,Hopeapajuntie,,60.52058987,22.41583686,FÖLI,,0,,Europe/Helsinki
1162,1162,Kaivastentie,,60.61380878,22.41830315,FÖLI,,0,,Europe/Helsinki
3296,3296,Ruonintie,,60.28589113,21.91514869,FÖLI,,0,,Europe/Helsinki
1616,1616,Ritzinkuja,,60.47562401,22.30701251,FÖLI,,0,,Europe/Helsinki
2021,2021,Vatsela,,60.48877539,22.12630534,FÖLI,,0,,Europe/Helsinki
311,311,Margareetantie,,60.38941604,22.18870536,FÖLI,,0,,Europe/Helsinki
538,538,Rauhalantie,,60.4333964,22.17664304,FÖLI,,0,,Europe/Helsinki
778,778,Pansion koulu,,60.44965544,22.16754706,FÖLI,,0,,Europe/Helsinki
6144,6144,Soukkio,,60.4118755,22.41661289,FÖLI,,0,,Europe/Helsinki
502,502,Kivikartiontie,,60.43618075,22.29297444,FÖLI,,0,,Europe/Helsinki
6037,6037,Hovirinta,,60.404569,22.36457663,FÖLI,,0,,Europe/Helsinki
254,254,Ravurinkatu,,60.49444751,22.33944171,FÖLI,,0,,Europe/Helsinki
6299,6299,Kylliäisentie,,60.39219623,22.39709519,FÖLI,,0,,Europe/Helsinki
707,707,Kirjurinaukio,,60.43367824,22.34627149,FÖLI,,0,,Europe/Helsinki
419,419,Haarlahdentie,,60.39342122,22.19701618,FÖLI,,0,,Europe/Helsinki
283,283,Adventtikuja,,60.54428426,22.30674336,FÖLI,,0,,Europe/Helsinki
5433,5433,Särkelä,,60.56990299,22.79264996,FÖLI,,0,,Europe/Helsinki
5419,5419,Postikuja,,60.58313437,22.74452334,FÖLI,,0,,Europe/Helsinki
175,175,Oskarinkuja,,60.46245245,22.26942674,FÖLI,,0,,Europe/Helsinki
6136,6136,"Kaarina, 110-tie",,60.40948508,22.37485431,FÖLI,,0,,Europe/Helsinki
5025,5025,Hanhenkaari,,60.50481552,22.45842831,FÖLI,,0,,Europe/Helsinki
5120,5120,Sikilä,,60.57477192,22.47753443,FÖLI,,0,,Europe/Helsinki
3292,3292,Rymättylän koulu,,60.3744864,21.95362284,FÖLI,,0,,Europe/Helsinki
157,157,Urheilupuisto,,60.43963877,22.26325297,FÖLI,,0,,Europe/Helsinki
438,438,Maanpääntie,,60.41661689,22.1904977,FÖLI,,0,,Europe/Helsinki
1681,1681,Hautausmaantie,,60.43474906,22.31684882,FÖLI,,0,,Europe/Helsinki
6072,6072,Hiiskanaukea,,60.43268675,22.38437471,FÖLI,,0,,Europe/Helsinki
199,199,Raunistulantie,,60.4687045,22.27813021,FÖLI,,0,,Europe/Helsinki
1557,1557,Finnberginkatu,,60.48793673,22.24431494,FÖLI,,0,,Europe/Helsinki
3174,3174,Saarlantie,,60.33283433,21.97955218,FÖLI,,0,,Europe/Helsinki
1241,1241,Kesäniementie,,60.34739954,22.20361814,FÖLI,,0,,Europe/Helsinki
250,250,Aitonkuja,,60.50258171,22.33322197,FÖLI,,0,,Europe/Helsinki
4088,4088,Säkäkuja,,60.54198939,22.24680816,FÖLI,,0,,Europe/Helsinki
1024,1024,Itäpellonkatu,,60.45880674,22.24660067,FÖLI,,0,,Europe/Helsinki
1753,1753,Vanha Samppaantie,,60.37627628,22.13505805,FÖLI,,0,,Europe/Helsinki
3207,3207,Lehtismäentie,,60.49523821,22.05916456,FÖLI,,0,,Europe/Helsinki
5123,5123,"Liedon koulukeskus, laituri 3",,60.5006129,22.45223726,FÖLI,,0,,Europe/Helsinki
1555,1555,Laureuksenkatu,,60.489868,22.2440133,FÖLI,,0,,Europe/Helsinki
5006,5006,Hakkinen,,60.48263511,22.39007192,FÖLI,,0,,Europe/Helsinki
2068,2068,Kirjokallionkatu,,60.50420961,22.13158573,FÖLI,,0,,Europe/Helsinki
6057,6057,Kesämäen kenttä,,60.4147128,22.39699796,FÖLI,,0,,Europe/Helsinki
6610,6610,Käräjätie,,60.45184106,22.63682684,V-S ELY,,0,,Europe/Helsinki
6621,6621,Paimion urheilupuisto,,60.44916357,22.69591919,V-S ELY,,0,,Europe/Helsinki
241,241,Kullanmäentie,,60.50038469,22.33184329,FÖLI,,0,,Europe/Helsinki
200,200,Kastunpuisto,,60.46688426,22.27548163,FÖLI,,0,,Europe/Helsinki
5008,5008,Nenämäki,,60.48555752,22.39814622,FÖLI,,0,,Europe/Helsinki
3067,3067,Merimaskun osuuspankki,,60.4585897,21.91162677,FÖLI,,0,,Europe/Helsinki
5405,5405,Killala,,60.56384891,22.6989147,FÖLI,,0,,Europe/Helsinki
6113,6113,Kausela,,60.46757304,22.35016826,FÖLI,,0,,Europe/Helsinki
3117,3117,Taimontie,,60.48109623,22.03628501,FÖLI,,0,,Europe/Helsinki
5438,5438,Takamaantie,,60.55918527,22.74800475,FÖLI,,0,,Europe/Helsinki
6094,6094,Hakaniitty,,60.445873,22.37680478,FÖLI,,0,,Europe/Helsinki
1028,1028,Yrjänänaukio,,60.45972892,22.26363383,FÖLI,,0,,Europe/Helsinki
2049,2049,Venhe,,60.49137786,22.16413238,FÖLI,,0,,Europe/Helsinki
1176,1176,Auvaismäentie,,60.57720304,22.34999508,FÖLI,,0,,Europe/Helsinki
2025,2025,Paikkari,,60.48706832,22.10551417,FÖLI,,0,,Europe/Helsinki
1100,1100,Jäkärlän liittymä,,60.54290619,22.34255285,FÖLI,,0,,Europe/Helsinki
T3,T3,Kauppatori,,60.4505609,22.26699198,FÖLI,,0,,Europe/Helsinki
5055,5055,Mäntyläntie,,60.4579233,22.42267099,FÖLI,,0,,Europe/Helsinki
3308,3308,Munkkila,,60.29378875,21.91518723,FÖLI,,0,,Europe/Helsinki
1263,1263,Varvintie,,60.36394626,22.19573575,FÖLI,,0,,Europe/Helsinki
880,880,Kotkankatu,,60.44217206,22.3423614,FÖLI,,0,,Europe/Helsinki
672,672,Valmetinkatu,,60.44464699,22.15173168,FÖLI,,0,,Europe/Helsinki
3046,3046,Hellemaa,,60.46079562,21.88964529,FÖLI,,0,,Europe/Helsinki
6667,6667,Kyysilä,,60.48071218,22.73981213,V-S ELY,,0,,Europe/Helsinki
75,75,Tiilentekijänkatu,,60.43828816,22.25437121,FÖLI,,0,,Europe/Helsinki
6676,6676,Alttarvahantie,,60.50149421,22.76581805,V-S ELY,,0,,Europe/Helsinki
3005,3005,Karvetti,,60.48034498,22.0465307,FÖLI,,0,,Europe/Helsinki
682,682,Vitkalankatu,,60.44763234,22.20805235,FÖLI,,0,,Europe/Helsinki
T12,T12,Keskusta,,60.44891628,22.26903355,FÖLI,,0,,Europe/Helsinki
6139,6139,Kuhilastie,,60.41047254,22.40435987,FÖLI,,0,,Europe/Helsinki
6306,6306,Pelli,,60.38634397,22.4059327,FÖLI,,0,,Europe/Helsinki
215,215,Elinantie,,60.45915563,22.30045585,FÖLI,,0,,Europe/Helsinki
1614,1614,Lustokatu,,60.47729708,22.29913817,FÖLI,,0,,Europe/Helsinki
6105,6105,Kölikuja,,60.46366191,22.35633654,FÖLI,,0,,Europe/Helsinki
961,961,Viertolantie,,60.47582009,22.26407045,FÖLI,,0,,Europe/Helsinki
8136,8136,Paraisten kaupungintalo E,,60.30454366,22.30147202,V-S ELY,,0,,Europe/Helsinki
1587,1587,Urusvuori,,60.50190422,22.29658831,FÖLI,,0,,Europe/Helsinki
835,835,Hintsa Knaapin katu,,60.44298926,22.35441687,FÖLI,,0,,Europe/Helsinki
6261,6261,Mäenpääntie,,60.42935221,22.53741272,FÖLI,,0,,Europe/Helsinki
6350,6350,Moskala,,60.43343947,22.4888354,FÖLI,,0,,Europe/Helsinki
3255,3255,Iskola,,60.43343,21.81859963,FÖLI,,0,,Europe/Helsinki
6653,6653,Alvar Aallon tie,,60.45205201,22.70325139,V-S ELY,,0,,Europe/Helsinki
1320,1320,Mäkivaarantie,,60.3767968,22.16062363,FÖLI,,0,,Europe/Helsinki
3003,3003,Nuhjala,,60.4828245,22.05686617,FÖLI,,0,,Europe/Helsinki
3256,3256,Leppäkarintie,,60.45733492,21.84564849,FÖLI,,0,,Europe/Helsinki
3226,3226,Naantalin seurakuntakeskus,,60.46996002,22.02848169,FÖLI,,0,,Europe/Helsinki
3216,3216,Luikkionvuori,,60.48862774,22.03593317,FÖLI,,0,,Europe/Helsinki
5220,5220,Kahloja,,60.49179711,22.45759239,FÖLI,,0,,Europe/Helsinki
6317,6317,Vuolahti,,60.37335883,22.32952992,FÖLI,,0,,Europe/Helsinki
6655,6655,Hanhiala,,60.45464702,22.70985932,V-S ELY,,0,,Europe/Helsinki
281,281,Laskiaiskatu,,60.54336142,22.30173011,FÖLI,,0,,Europe/Helsinki
641,641,Puistomäenkatu,,60.43125655,22.266458,FÖLI,,0,,Europe/Helsinki
748,748,Mesaanipuisto,,60.45043469,22.15337902,FÖLI,,0,,Europe/Helsinki
1003,1003,Konevarikko,,60.47539266,22.2568652,FÖLI,,0,,Europe/Helsinki
1441,1441,Räntämäki,,60.47263103,22.2988857,FÖLI,,0,,Europe/Helsinki
1348,1348,Jalkapallostadion,,60.4421816,22.29410608,FÖLI,,0,,Europe/Helsinki
726,726,Lumikonkatu,,60.44891211,22.17481076,FÖLI,,0,,Europe/Helsinki
1020,1020,Vienola,,60.45512,22.20329,FÖLI,,0,,Europe/Helsinki
1642,1642,Jaanintie,,60.46350263,22.33174357,FÖLI,,0,,Europe/Helsinki
6025,6025,Konttikatu,,60.40251073,22.35609265,FÖLI,,0,,Europe/Helsinki
5071,5071,Palovuori,,60.50706396,22.39067893,FÖLI,,0,,Europe/Helsinki
152,152,Sotalaistenkatu,,60.4415928,22.25652662,FÖLI,,0,,Europe/Helsinki
5167,5167,Santakuja,,60.54171663,22.60509391,FÖLI,,0,,Europe/Helsinki
8014,8014,Lahto,,60.63468166,22.58916358,V-S ELY,,0,,Europe/Helsinki
253,253,Paimalantie,,60.49302025,22.33283135,FÖLI,,0,,Europe/Helsinki
614,614,Kastuntie,,60.471456,22.27408714,FÖLI,,0,,Europe/Helsinki
4073,4073,Untontie,,60.61478993,22.30833791,FÖLI,,0,,Europe/Helsinki
2005,2005,Raision kirkko,,60.48457268,22.17358419,FÖLI,,0,,Europe/Helsinki
5218,5218,Taatila,,60.49421026,22.46113557,FÖLI,,0,,Europe/Helsinki
3088,3088,Niittula,,60.48678304,21.7279506,FÖLI,,0,,Europe/Helsinki
4049,4049,Leppistentie,,60.57510189,22.24955427,FÖLI,,0,,Europe/Helsinki
5175,5175,Hihna,,60.54708484,22.66860516,FÖLI,,0,,Europe/Helsinki
886,886,Talpiankuja,,60.45082011,22.35597157,FÖLI,,0,,Europe/Helsinki
600,600,Ratsukonkatu,,60.41517683,22.26836343,FÖLI,,0,,Europe/Helsinki
2162,2162,Telakan pohjoisportti,,60.46236206,22.13551854,FÖLI,,0,,Europe/Helsinki
1138,1138,Valuntie,,60.62560029,22.42555627,FÖLI,,0,,Europe/Helsinki
1052,1052,Paasirinne,,60.45621643,22.25060273,FÖLI,,0,,Europe/Helsinki
8117,8117,Kalkkitie L,,60.31722123,22.33511867,V-S ELY,,0,,Europe/Helsinki
833,833,Koukkarinkatu,,60.44476821,22.36366077,FÖLI,,0,,Europe/Helsinki
927,927,Vähäheikkiläntie,,60.43171127,22.25802425,FÖLI,,0,,Europe/Helsinki
3153,3153,Heinäistentie,,60.3730962,21.94686425,FÖLI,,0,,Europe/Helsinki
1171,1171,Paattisten kirkko,,60.59070813,22.37798962,FÖLI,,0,,Europe/Helsinki
8016,8016,Holpinkatu,,60.64223957,22.59129551,V-S ELY,,0,,Europe/Helsinki
333,333,Moikoistenkatu,,60.41535149,22.24730249,FÖLI,,0,,Europe/Helsinki
5116,5116,Hietalantie,,60.57211586,22.46517221,FÖLI,,0,,Europe/Helsinki
763,763,Artukaistentie,,60.45640351,22.19397728,FÖLI,,0,,Europe/Helsinki
1367,1367,Jäkärlän puistokatu,,60.53753897,22.35259597,FÖLI,,0,,Europe/Helsinki
4092,4092,Pässinkaari,,60.53547286,22.24610515,FÖLI,,0,,Europe/Helsinki
942,942,Kunnallissairaalantie,,60.43526916,22.25921486,FÖLI,,0,,Europe/Helsinki
4055,4055,Koivisto,,60.58790396,22.27179749,FÖLI,,0,,Europe/Helsinki
1520,1520,Messukeskus,,60.4534131,22.18140473,FÖLI,,0,,Europe/Helsinki
656,656,Silakatu,,60.4811023,22.33908316,FÖLI,,0,,Europe/Helsinki
6248,6248,Tammisilta,,60.43458487,22.57943557,FÖLI,,0,,Europe/Helsinki
949,949,Uittamonpuisto,,60.42102335,22.25581976,FÖLI,,0,,Europe/Helsinki
8125,8125,Björkhagen E,,60.30467715,22.32254291,V-S ELY,,0,,Europe/Helsinki
8975,8975,"Houtskär, Träsk skola",,60.2099484,21.34666979,V-S ELY,,0,,Europe/Helsinki
6363,6363,Pyydysmäki,,60.44592268,22.41955911,FÖLI,,0,,Europe/Helsinki
1764,1764,Kakskerta,,60.37044241,22.29149531,FÖLI,,0,,Europe/Helsinki
1371,1371,Suotorpankuja,,60.54257119,22.36001291,FÖLI,,0,,Europe/Helsinki
2028,2028,Vuorenpää,,60.48600748,22.09428506,FÖLI,,0,,Europe/Helsinki
4015,4015,Tuori,,60.53616531,22.22047253,FÖLI,,0,,Europe/Helsinki
6053,6053,Aumatie,,60.41084053,22.40356262,FÖLI,,0,,Europe/Helsinki
234,234,Linnasmäki,,60.48194866,22.30458488,FÖLI,,0,,Europe/Helsinki
3058,3058,Merimasku kko,,60.48162657,21.87123493,FÖLI,,0,,Europe/Helsinki
4052,4052,Tammistontie,,60.57760811,22.25479523,FÖLI,,0,,Europe/Helsinki
1802,1802,Lehmusvalkama,,60.43696574,22.31341829,FÖLI,,0,,Europe/Helsinki
3195,3195,Kurala,,60.39790282,21.87886612,FÖLI,,0,,Europe/Helsinki
3026,3026,Kordelininkatu,,60.46197498,22.00089642,FÖLI,,0,,Europe/Helsinki
74,74,Martinkirkko,,60.44083401,22.25718333,FÖLI,,0,,Europe/Helsinki
1211,1211,Ketussuontie,,60.51284046,22.30459145,FÖLI,,0,,Europe/Helsinki
3106,3106,Alitalontie,,60.48607009,22.04959189,FÖLI,,0,,Europe/Helsinki
6749,6749,Nakolinna,,60.46786806,22.66187076,V-S ELY,,0,,Europe/Helsinki
596,596,Wibeliuksenpuisto,,60.41877235,22.26960372,FÖLI,,0,,Europe/Helsinki
6016,6016,Pohjola,,60.40645483,22.34727805,FÖLI,,0,,Europe/Helsinki
717,717,Lehmusaukio,,60.43720361,22.30283223,FÖLI,,0,,Europe/Helsinki
5214,5214,Raidistontie,,60.59215863,22.42346054,FÖLI,,0,,Europe/Helsinki
3173,3173,Saarlantie,,60.33222185,21.97857631,FÖLI,,0,,Europe/Helsinki
368,368,Satavansilta,,60.38145242,22.22315691,FÖLI,,0,,Europe/Helsinki
998,998,Ispoinen,,60.42744228,22.26892344,FÖLI,,0,,Europe/Helsinki
852,852,Vähä Hämeenkatu,,60.45148158,22.28329332,FÖLI,,0,,Europe/Helsinki
1058,1058,Aunelantie,,60.45415714,22.19625777,FÖLI,,0,,Europe/Helsinki
486,486,Bergeninkatu,,60.46160891,22.21891548,FÖLI,,0,,Europe/Helsinki
6365,6365,Värttinä,,60.44636434,22.3780086,FÖLI,,0,,Europe/Helsinki
606,606,Vähäheikkiläntie,,60.43655211,22.27454608,FÖLI,,0,,Europe/Helsinki
6622,6622,Paimion urheilupuisto,,60.4488865,22.69735687,V-S ELY,,0,,Europe/Helsinki
5043,5043,Nuolemo,,60.51555993,22.48095448,FÖLI,,0,,Europe/Helsinki
2061,2061,Kirjokallionkatu,,60.50443948,22.13197053,FÖLI,,0,,Europe/Helsinki
3305,3305,Meinikkala,,60.30421606,21.88956669,FÖLI,,0,,Europe/Helsinki
5423,5423,Tarvasjoen koulu,,60.57979898,22.75380413,FÖLI,,0,,Europe/Helsinki
5328,5328,Kailassuontie,,60.56406851,22.62771008,FÖLI,,0,,Europe/Helsinki
1026,1026,Paasirinne,,60.45609196,22.250894,FÖLI,,0,,Europe/Helsinki
1728,1728,Syrjäläntie,,60.40931831,22.16281859,FÖLI,,0,,Europe/Helsinki
370,370,Satava,,60.37625999,22.21503869,FÖLI,,0,,Europe/Helsinki
2097,2097,Ihala,,60.46924467,22.17910731,FÖLI,,0,,Europe/Helsinki
909,909,Tavara-asema,,60.45510812,22.24122628,FÖLI,,0,,Europe/Helsinki
385,385,Pohjaniityntie,,60.3757292,22.20605508,FÖLI,,0,,Europe/Helsinki
1601,1601,Verkahovi,,60.4571026,22.27346523,FÖLI,,0,,Europe/Helsinki
4066,4066,Seppäläntie,,60.60683675,22.29974714,FÖLI,,0,,Europe/Helsinki
3282,3282,Ajola,,60.40257665,21.82357265,FÖLI,,0,,Europe/Helsinki
89,89,Turun linja-autoasema,,60.45674327,22.26563518,FÖLI,,0,,Europe/Helsinki
5139,5139,Vanha Tyllintie,,60.51444762,22.48234962,FÖLI,,0,,Europe/Helsinki
1273,1273,Brinkhall,,60.36804054,22.24151823,FÖLI,,0,,Europe/Helsinki
255,255,Rojolantie,,60.49543055,22.34312755,FÖLI,,0,,Europe/Helsinki
246,246,Saramäki,,60.51378248,22.29816348,FÖLI,,0,,Europe/Helsinki
274,274,Tampereentie,,60.4642997,22.27232562,FÖLI,,0,,Europe/Helsinki
5209,5209,Levaus,,60.58152587,22.4303397,FÖLI,,0,,Europe/Helsinki
126,126,Latokari,,60.42963458,22.22036624,FÖLI,,0,,Europe/Helsinki
1343,1343,Rakuunapuisto,,60.43604079,22.30656604,FÖLI,,0,,Europe/Helsinki
1233,1233,Vajossuonkatu,,60.49935672,22.29522655,FÖLI,,0,,Europe/Helsinki
1177,1177,Krouvinkuja,,60.57310687,22.34777143,FÖLI,,0,,Europe/Helsinki
6034,6034,Hovirinnan päiväkoti,,60.40229186,22.36450138,FÖLI,,0,,Europe/Helsinki
3129,3129,Koverintie,,60.43222363,21.89503428,FÖLI,,0,,Europe/Helsinki
1504,1504,Inkerinkatu,,60.43415489,22.36352038,FÖLI,,0,,Europe/Helsinki
1088,1088,Huhkonmaantie,,60.50766614,22.33721137,FÖLI,,0,,Europe/Helsinki
6669,6669,Kaimala,,60.48622956,22.74568093,V-S ELY,,0,,Europe/Helsinki
1815,1815,Savenvalajankatu,,60.44235893,22.25179285,FÖLI,,0,,Europe/Helsinki
4042,4042,Merttelä,,60.56060656,22.22960541,FÖLI,,0,,Europe/Helsinki
1300,1300,Vastilantie,,60.37885404,22.1475135,FÖLI,,0,,Europe/Helsinki
1549,1549,Karrinpolku,,60.47900998,22.23806439,FÖLI,,0,,Europe/Helsinki
5057,5057,Viisasperkontie,,60.4583678,22.42723185,FÖLI,,0,,Europe/Helsinki
2063,2063,Petäsmäki,,60.50318701,22.1279654,FÖLI,,0,,Europe/Helsinki
2066,2066,Raision sairaala,,60.50392135,22.14289675,FÖLI,,0,,Europe/Helsinki
6351,6351,Puosta,,60.42038792,22.51677245,FÖLI,,0,,Europe/Helsinki
6307,6307,Kuusiston kirkko,,60.38177461,22.41262493,FÖLI,,0,,Europe/Helsinki
132,132,Hämeenkatu,,60.44999761,22.2779579,FÖLI,,0,,Europe/Helsinki
392,392,Haarla,,60.39464302,22.22367309,FÖLI,,0,,Europe/Helsinki
2121,2121,Itäniityntie,,60.49025855,22.21151807,FÖLI,,0,,Europe/Helsinki
5223,5223,Suopohja,,60.46094829,22.45927166,FÖLI,,0,,Europe/Helsinki
1676,1676,Vaapukkatie,,60.44147412,22.31072978,FÖLI,,0,,Europe/Helsinki
1961,1961,Lentorahtiasema,,60.5101382,22.26483211,FÖLI,,0,,Europe/Helsinki
322,322,Palokulmantie,,60.40870735,22.18263319,FÖLI,,0,,Europe/Helsinki
1104,1104,Jäkärlän liittymä,,60.54301703,22.34392402,FÖLI,,0,,Europe/Helsinki
2102,2102,Ihalan koulu,,60.47143197,22.17173345,FÖLI,,0,,Europe/Helsinki
8140,8140,Österby I,,60.31437625,22.32581092,V-S ELY,,0,,Europe/Helsinki
115,115,Yliopisto (TYKS U-sairaala),,60.45290103,22.2857991,FÖLI,,0,,Europe/Helsinki
950,950,Ratsumiehenkatu,,60.42007901,22.25933979,FÖLI,,0,,Europe/Helsinki
666,666,Kansanpuistontie,,60.43392234,22.18147693,FÖLI,,0,,Europe/Helsinki
5040,5040,Yrjönniityntie,,60.51444659,22.47252173,FÖLI,,0,,Europe/Helsinki
1267,1267,Töyrästie,,60.36102669,22.18464006,FÖLI,,0,,Europe/Helsinki
1429,1429,Maanpääntie,,60.41636821,22.18884352,FÖLI,,0,,Europe/Helsinki
6153,6153,Raadelma,,60.42047383,22.45890894,FÖLI,,0,,Europe/Helsinki
1491,1491,Karjalankatu,,60.41265996,22.30310662,FÖLI,,0,,Europe/Helsinki
896,896,Jalkasuontie,,60.45621062,22.22156774,FÖLI,,0,,Europe/Helsinki
1117,1117,Haverintie,,60.55994424,22.32410049,FÖLI,,0,,Europe/Helsinki
6211,6211,Papinholma,,60.39823463,22.38793729,FÖLI,,0,,Europe/Helsinki
6146,6146,Hulkkiontie,,60.41285342,22.42360062,FÖLI,,0,,Europe/Helsinki
2107,2107,Alhainen,,60.47997258,22.15512132,FÖLI,,0,,Europe/Helsinki
3018,3018,Naantali,,60.46904,22.02781,FÖLI,,0,,Europe/Helsinki
5047,5047,Hollanterintie,,60.45120435,22.40665688,FÖLI,,0,,Europe/Helsinki
150,150,Läntinen Pitkäkatu,,60.45262556,22.25655242,FÖLI,,0,,Europe/Helsinki
1164,1164,Joenperäntie,,60.60945621,22.41171584,FÖLI,,0,,Europe/Helsinki
1552,1552,Capsiankatu,,60.48960078,22.23503213,FÖLI,,0,,Europe/Helsinki
334,334,Föri,,60.44102313,22.24913148,FÖLI,,0,,Europe/Helsinki
469,469,Kupittaan jäähalli,,60.44170441,22.28900775,FÖLI,,0,,Europe/Helsinki
549,549,Hietalantie,,60.42733336,22.11182515,FÖLI,,0,,Europe/Helsinki
3211,3211,Immanen,,60.49910359,22.04630545,FÖLI,,0,,Europe/Helsinki
71,71,Kela,,60.44826591,22.25910044,FÖLI,,0,,Europe/Helsinki
1622,1622,Ritzinkuja,,60.47514928,22.30527803,FÖLI,,0,,Europe/Helsinki
4006,4006,Ahola,,60.51426518,22.22554816,FÖLI,,0,,Europe/Helsinki
5174,5174,Uusikartano,,60.54376543,22.64231619,FÖLI,,0,,Europe/Helsinki
6664,6664,Paimion sairaala,,60.46604569,22.73172581,V-S ELY,,0,,Europe/Helsinki
1042,1042,Hippoksentie,,60.4435686,22.30638774,FÖLI,,0,,Europe/Helsinki
6098,6098,Pellervonkatu,,60.44812313,22.3735181,FÖLI,,0,,Europe/Helsinki
375,375,Kakskerrantie,,60.37191721,22.17676507,FÖLI,,0,,Europe/Helsinki
8019,8019,Aura-Salon risteys,,60.64704055,22.59051022,V-S ELY,,0,,Europe/Helsinki
1648,1648,Suntiontie,,60.45974591,22.2988411,FÖLI,,0,,Europe/Helsinki
196,196,Kaerlantie,,60.47878594,22.28454971,FÖLI,,0,,Europe/Helsinki
6202,6202,Suitsikatu,,60.4079815,22.35391185,FÖLI,,0,,Europe/Helsinki
236,236,Orhikujanne,,60.48385071,22.31212525,FÖLI,,0,,Europe/Helsinki
327,327,Pikikurjentie,,60.4174875,22.20115146,FÖLI,,0,,Europe/Helsinki
3175,3175,Knaapila,,60.3290808,21.9713881,FÖLI,,0,,Europe/Helsinki
506,506,Ilpoistentie,,60.423246,22.29584835,FÖLI,,0,,Europe/Helsinki
1703,1703,Uittamo,,60.41729507,22.26472775,FÖLI,,0,,Europe/Helsinki
616,616,Punomontie,,60.4754906,22.27351734,FÖLI,,0,,Europe/Helsinki
974,974,Suikkilanpuisto,,60.4660467,22.22081078,FÖLI,,0,,Europe/Helsinki
184,184,Leaf,,60.48600601,22.28634172,FÖLI,,0,,Europe/Helsinki
5061,5061,Pakurla,,60.4989274,22.36243737,FÖLI,,0,,Europe/Helsinki
5191,5191,Teijuntupa,,60.52007732,22.45809286,FÖLI,,0,,Europe/Helsinki
3160,3160,Salonkyläntie,,60.35868904,21.95300268,FÖLI,,0,,Europe/Helsinki
1669,1669,Teollisuuskatu,,60.45117026,22.29811754,FÖLI,,0,,Europe/Helsinki
1565,1565,Kiikku,,60.49241406,22.2665112,FÖLI,,0,,Europe/Helsinki
6154,6154,Raadelma,,60.42059876,22.45861877,FÖLI,,0,,Europe/Helsinki
1073,1073,Saarenoja,,60.55587486,22.31574216,FÖLI,,0,,Europe/Helsinki
5073,5073,Harviainen,,60.51025788,22.39594935,FÖLI,,0,,Europe/Helsinki
819,819,Rautalankatu,,60.48567102,22.23300429,FÖLI,,0,,Europe/Helsinki
1679,1679,Taalintehtaankatu,,60.43647132,22.33541101,FÖLI,,0,,Europe/Helsinki
6056,6056,Kuhilaspelto,,60.4141286,22.40089816,FÖLI,,0,,Europe/Helsinki
2149,2149,Maksla,,60.50180917,22.23197835,FÖLI,,0,,Europe/Helsinki
1979,1979,Metsämäen ravirata,,60.49501816,22.3465037,FÖLI,,0,,Europe/Helsinki
263,263,Orhikujanne,,60.48439374,22.31350425,FÖLI,,0,,Europe/Helsinki
3002,3002,Lietsalan koulu,,60.48539321,22.06963143,FÖLI,,0,,Europe/Helsinki
35,35,Taalinpellonkatu,,60.47162803,22.25164238,FÖLI,,0,,Europe/Helsinki
1646,1646,Kuikkulankatu,,60.46351358,22.2912306,FÖLI,,0,,Europe/Helsinki
803,803,Niuskalankatu,,60.4741767,22.31390627,FÖLI,,0,,Europe/Helsinki
6215,6215,Puistotie,,60.38859151,22.39113854,FÖLI,,0,,Europe/Helsinki
2034,2034,Kaanaan koulu,,60.46754646,22.107459,FÖLI,,0,,Europe/Helsinki
4084,4084,Torikkalantie,,60.63099792,22.27513872,FÖLI,,0,,Europe/Helsinki
5168,5168,Santakuja,,60.54175137,22.60614755,FÖLI,,0,,Europe/Helsinki
858,858,Luolavuorentie,,60.43939493,22.27054812,FÖLI,,0,,Europe/Helsinki
5128,5128,Taivalrannantie,,60.55036953,22.39122413,FÖLI,,0,,Europe/Helsinki
562,562,Birkka,,60.42748391,22.13652232,FÖLI,,0,,Europe/Helsinki
444,444,Pispalantie,,60.46121414,22.28672142,FÖLI,,0,,Europe/Helsinki
8145,8145,Paraisten koulukeskus,,60.30162996,22.29257902,V-S ELY,,0,,Europe/Helsinki
1627,1627,Kardinaalinkatu,,60.47177482,22.31667551,FÖLI,,0,,Europe/Helsinki
6630,6630,Neitsytlampi,,60.44567785,22.69347035,V-S ELY,,0,,Europe/Helsinki
2032,2032,Tuuvalantie,,60.48559157,22.07669003,FÖLI,,0,,Europe/Helsinki
5422,5422,Virola,,60.58274693,22.7467484,FÖLI,,0,,Europe/Helsinki
1070,1070,Saarenoja,,60.5561419,22.31643384,FÖLI,,0,,Europe/Helsinki
1090,1090,Paimala,,60.51202928,22.34551786,FÖLI,,0,,Europe/Helsinki
8106,8106,Kårkulla P,,60.34741694,22.36042395,V-S ELY,,0,,Europe/Helsinki
838,838,Pääskyvuori,,60.44399347,22.33225606,FÖLI,,0,,Europe/Helsinki
227,227,Saramäentie,,60.46551043,22.27755724,FÖLI,,0,,Europe/Helsinki
1228,1228,Polttolaitos,,60.4816259,22.31405011,FÖLI,,0,,Europe/Helsinki
796,796,Tähkäpuisto,,60.43382354,22.29851864,FÖLI,,0,,Europe/Helsinki
2009,2009,Raision keskusta,,60.48647728,22.16684989,FÖLI,,0,,Europe/Helsinki
182,182,Kärsämäen koulu,,60.48231463,22.28822663,FÖLI,,0,,Europe/Helsinki
856,856,Kaupunginsairaala,,60.44169955,22.27594407,FÖLI,,0,,Europe/Helsinki
300,300,Vankila,,60.49357478,22.31840913,FÖLI,,0,,Europe/Helsinki
1493,1493,Muntionkatu,,60.41569423,22.30526803,FÖLI,,0,,Europe/Helsinki
T85,T85,Keskusta,,60.44998833,22.2688409,FÖLI,,0,,Europe/Helsinki
779,779,Hepokankare,,60.47498002,22.20570525,FÖLI,,0,,Europe/Helsinki
1508,1508,Hyrköistentie,,60.45125529,22.15986402,FÖLI,,0,,Europe/Helsinki
1125,1125,Sakontie,,60.58529825,22.36173159,FÖLI,,0,,Europe/Helsinki
4065,4065,Seppäläntie,,60.60655554,22.29891028,FÖLI,,0,,Europe/Helsinki
583,583,Sairashuoneenkatu,,60.44973992,22.24372418,FÖLI,,0,,Europe/Helsinki
671,671,Valmetinkatu,,60.44505082,22.15343669,FÖLI,,0,,Europe/Helsinki
6205,6205,Kaarinan uimahalli,,60.4043599,22.37405663,FÖLI,,0,,Europe/Helsinki
5360,5360,Littoisten koulu,,60.45147233,22.41129618,FÖLI,,0,,Europe/Helsinki
6032,6032,Mattelmäki,,60.40045293,22.36461807,FÖLI,,0,,Europe/Helsinki
344,344,Kukolantie,,60.40945566,22.23656681,FÖLI,,0,,Europe/Helsinki
1743,1743,Nuottakatu,,60.40546159,22.24404053,FÖLI,,0,,Europe/Helsinki
1737,1737,Haarlantie,,60.39247435,22.21338089,FÖLI,,0,,Europe/Helsinki
1072,1072,Haverintie,,60.55963763,22.32330483,FÖLI,,0,,Europe/Helsinki
3024,3024,Viiala,,60.45930031,22.01349059,FÖLI,,0,,Europe/Helsinki
3078,3078,Livonsaari,,60.51192332,21.74638522,FÖLI,,0,,Europe/Helsinki
2079,2079,Nuorikkala,,60.47153229,22.14335934,FÖLI,,0,,Europe/Helsinki
636,636,Pääterveysasema,,60.43851271,22.27355123,FÖLI,,0,,Europe/Helsinki
1172,1172,Männistöntie,,60.58797828,22.3718557,FÖLI,,0,,Europe/Helsinki
1257,1257,Vedenvuotama,,60.36972946,22.24800723,FÖLI,,0,,Europe/Helsinki
141,141,Räävelinkatu,,60.44831811,22.25350555,FÖLI,,0,,Europe/Helsinki
1147,1147,Jaakolantie,,60.68057938,22.44050223,FÖLI,,0,,Europe/Helsinki
1592,1592,Pulmussuontie,,60.47504228,22.27431127,FÖLI,,0,,Europe/Helsinki
3091,3091,Henttulantie,,60.47059573,21.70764482,FÖLI,,0,,Europe/Helsinki
186,186,Hiidenkatu,,60.49014761,22.28727003,FÖLI,,0,,Europe/Helsinki
3289,3289,Simolan rantatie,,60.37357121,21.90423607,FÖLI,,0,,Europe/Helsinki
68,68,Brahenkatu,,60.45286446,22.27260809,FÖLI,,0,,Europe/Helsinki
2053,2053,Tenavakatu,,60.49864162,22.15741517,FÖLI,,0,,Europe/Helsinki
1722,1722,Vähäheikkiläntie,,60.43656485,22.27439869,FÖLI,,0,,Europe/Helsinki
155,155,Poliisitalo,,60.44575101,22.2536261,FÖLI,,0,,Europe/Helsinki
1198,1198,Tanhuankatu,,60.45463275,22.32570218,FÖLI,,0,,Europe/Helsinki
1438,1438,Oriketo,,60.48076751,22.32492219,FÖLI,,0,,Europe/Helsinki
6184,6184,Verhonkuja,,60.4156887,22.54223301,FÖLI,,0,,Europe/Helsinki
4076,4076,Urheilutie,,60.61715431,22.30424353,FÖLI,,0,,Europe/Helsinki
3020,3020,Kuparivuori,,60.4651,22.02065,FÖLI,,0,,Europe/Helsinki
46,46,Klassikonpolku,,60.44709206,22.260473,FÖLI,,0,,Europe/Helsinki
1389,1389,Helastentie,,60.57214658,22.35426704,FÖLI,,0,,Europe/Helsinki
1619,1619,Siutlankatu,,60.47419857,22.30916763,FÖLI,,0,,Europe/Helsinki
6061,6061,Heinätie,,60.41685777,22.39222193,FÖLI,,0,,Europe/Helsinki
1707,1707,Katariinakoti,,60.41545959,22.29024838,FÖLI,,0,,Europe/Helsinki
6674,6674,Nummikuja,,60.49273528,22.75803531,V-S ELY,,0,,Europe/Helsinki
954,954,Nostoväenkatu,,60.48996969,22.25593449,FÖLI,,0,,Europe/Helsinki
5119,5119,Sikilä,,60.57473731,22.47761837,FÖLI,,0,,Europe/Helsinki
151,151,Rautatieasema,,60.45353733,22.25337933,FÖLI,,0,,Europe/Helsinki
4012,4012,Asola,,60.52657875,22.22066631,FÖLI,,0,,Europe/Helsinki
545,545,Birkka,,60.42776414,22.13533441,FÖLI,,0,,Europe/Helsinki
3104,3104,Isotalontie,,60.48628634,22.05710349,FÖLI,,0,,Europe/Helsinki
3023,3023,Viiala,,60.45952635,22.01112506,FÖLI,,0,,Europe/Helsinki
268,268,Jokipelto,,60.47261877,22.2863389,FÖLI,,0,,Europe/Helsinki
1554,1554,Laureuksenkatu,,60.48938412,22.24355585,FÖLI,,0,,Europe/Helsinki
340,340,Tykistökatu,,60.45041156,22.2942052,FÖLI,,0,,Europe/Helsinki
6294,6294,Rahkasammaleenkatu,,60.40531303,22.40178138,FÖLI,,0,,Europe/Helsinki
5072,5072,Palovuori,,60.50749493,22.39118275,FÖLI,,0,,Europe/Helsinki
993,993,Itäinen Pitkäkatu,,60.44383945,22.27670633,FÖLI,,0,,Europe/Helsinki
1464,1464,Apilakatu,,60.42534071,22.3070387,FÖLI,,0,,Europe/Helsinki
1720,1720,Luolavuoren koulu,,60.43135198,22.28077768,FÖLI,,0,,Europe/Helsinki
3107,3107,Alitalontie,,60.48602031,22.04994575,FÖLI,,0,,Europe/Helsinki
119,119,Karjakuja,,60.45557589,22.30652616,FÖLI,,0,,Europe/Helsinki
8128,8128,Tennby P,,60.30171641,22.31787613,V-S ELY,,0,,Europe/Helsinki
1683,1683,Poropuiston kenttä,,60.43078126,22.33108063,FÖLI,,0,,Europe/Helsinki
8103,8103,Kårlahdentie E,,60.351468,22.36006503,V-S ELY,,0,,Europe/Helsinki
1795,1795,Leirintäalue,,60.42576231,22.0982197,FÖLI,,0,,Europe/Helsinki
6733,6733,Kauppilantie,,60.54069431,22.70974781,V-S ELY,,0,,Europe/Helsinki
1291,1291,Järvi-Peniläntie,,60.3466152,22.19560528,FÖLI,,0,,Europe/Helsinki
897,897,Vesivuotavantie,,60.45641173,22.21840692,FÖLI,,0,,Europe/Helsinki
1363,1363,Suotorpankuja,,60.5432824,22.3597831,FÖLI,,0,,Europe/Helsinki
3303,3303,Grannintie,,60.31079302,21.94759606,FÖLI,,0,,Europe/Helsinki
704,704,Raastuvankatu,,60.43357719,22.35418045,FÖLI,,0,,Europe/Helsinki
5172,5172,Salovaarantie,,60.54256168,22.62915756,FÖLI,,0,,Europe/Helsinki
3080,3080,Mikoinen,,60.50986347,21.73522737,FÖLI,,0,,Europe/Helsinki
3151,3151,Rymättylä kk,,60.37619506,21.94416718,FÖLI,,0,,Europe/Helsinki
1406,1406,Tammelininkatu,,60.47259422,22.30471907,FÖLI,,0,,Europe/Helsinki
4050,4050,Leppistentie,,60.57445084,22.24818837,FÖLI,,0,,Europe/Helsinki
1726,1726,Vanha Pikisaarentie,,60.41820442,22.20457318,FÖLI,,0,,Europe/Helsinki
5203,5203,Vanha Tampereentie,,60.56460787,22.45271173,FÖLI,,0,,Europe/Helsinki
6063,6063,Varsahaka,,60.41930185,22.38907551,FÖLI,,0,,Europe/Helsinki
963,963,Kuninkojantie,,60.47521045,22.23816702,FÖLI,,0,,Europe/Helsinki
760,760,Härkämäki,,60.46528651,22.19595719,FÖLI,,0,,Europe/Helsinki
3188,3188,Syksylä,,60.40965745,21.87606849,FÖLI,,0,,Europe/Helsinki
2070,2070,Tasala,,60.48478022,22.1679047,FÖLI,,0,,Europe/Helsinki
T87,T87,Keskusta,,60.44955283,22.26746657,FÖLI,,0,,Europe/Helsinki
1742,1742,Nuottakatu,,60.40562806,22.24341638,FÖLI,,0,,Europe/Helsinki
1525,1525,Messukeskus,,60.4509687,22.18417033,FÖLI,,0,,Europe/Helsinki
6651,6651,Kaaritie,,60.45391034,22.69956623,V-S ELY,,0,,Europe/Helsinki
6338,6338,Niemenkulman koulu,,60.41230337,22.5316281,FÖLI,,0,,Europe/Helsinki
2042,2042,Jaakkola,,60.47780129,22.10756925,FÖLI,,0,,Europe/Helsinki
709,709,Uimahalli,,60.43198465,22.34334918,FÖLI,,0,,Europe/Helsinki
2101,2101,Ihalan koulu,,60.471579,22.17182084,FÖLI,,0,,Europe/Helsinki
8940,8940,Sauvo,,60.34356467,22.69461105,V-S ELY,,0,,Europe/Helsinki
1473,1473,Peltola,,60.42406223,22.30367721,FÖLI,,0,,Europe/Helsinki
5404,5404,Liiparla,,60.55846313,22.68827608,FÖLI,,0,,Europe/Helsinki
PT5,PT5,Puutori,,60.45521074,22.26855285,FÖLI,,0,,Europe/Helsinki
1061,1061,Suihkarintie,,60.51914506,22.29344494,FÖLI,,0,,Europe/Helsinki
4004,4004,Tikkalantie,,60.51192236,22.22766252,FÖLI,,0,,Europe/Helsinki
6683,6683,Väinämöisentie,,60.43549575,22.71522536,V-S ELY,,0,,Europe/Helsinki
602,602,Ratsukonkatu,,60.41411666,22.26762691,FÖLI,,0,,Europe/Helsinki
573,573,Marjaniementie,,60.43841904,22.19616622,FÖLI,,0,,Europe/Helsinki
8003,8003,Yliskulma th,,60.58993317,22.52776943,V-S ELY,,0,,Europe/Helsinki
5024,5024,Hyvättylä,,60.50310664,22.45813929,FÖLI,,0,,Europe/Helsinki
4047,4047,Ristimäki,,60.57174255,22.24560894,FÖLI,,0,,Europe/Helsinki
3144,3144,Kuralantie,,60.39207428,21.90620773,FÖLI,,0,,Europe/Helsinki
3090,3090,Ketolantie,,60.47949035,21.72414362,FÖLI,,0,,Europe/Helsinki
1234,1234,Urushaara,,60.49808014,22.29497449,FÖLI,,0,,Europe/Helsinki
1781,1781,Tietäjienkatu,,60.54171904,22.30870352,FÖLI,,0,,Europe/Helsinki
687,687,Turjanpuisto,,60.43522916,22.29835156,FÖLI,,0,,Europe/Helsinki
3150,3150,Velusmaantie,,60.37985847,21.94283507,FÖLI,,0,,Europe/Helsinki
6177,6177,Toivonlinnantie,,60.42233952,22.52801217,FÖLI,,0,,Europe/Helsinki
3047,3047,Ritaniementie,,60.46479642,21.8818931,FÖLI,,0,,Europe/Helsinki
1490,1490,Savonkatu,,60.41279982,22.30019594,FÖLI,,0,,Europe/Helsinki
759,759,Härkämäki,,60.4622751,22.19871559,FÖLI,,0,,Europe/Helsinki
3049,3049,Horjantie,,60.46666351,21.87923042,FÖLI,,0,,Europe/Helsinki
449,449,Korvalankatu,,60.46293147,22.29739632,FÖLI,,0,,Europe/Helsinki
4032,4032,Laihotie,,60.54874047,22.24904694,FÖLI,,0,,Europe/Helsinki
753,753,Raisionjoki,,60.44861801,22.20197349,FÖLI,,0,,Europe/Helsinki
716,716,Lehmustie,,60.43759083,22.3056507,FÖLI,,0,,Europe/Helsinki
1673,1673,Ilmarisenkatu,,60.44550957,22.31094762,FÖLI,,0,,Europe/Helsinki
683,683,Purokatu,,60.4362951,22.26252173,FÖLI,,0,,Europe/Helsinki
530,530,Kanslerintie,,60.44655177,22.22075109,FÖLI,,0,,Europe/Helsinki
1135,1135,Yli-Rokki,,60.61117263,22.41483689,FÖLI,,0,,Europe/Helsinki
6686,6686,Paimion aikuiskoulutuskeskus,,60.4307551,22.72152376,V-S ELY,,0,,Europe/Helsinki
345,345,Halvarinkatu,,60.4068463,22.23902121,FÖLI,,0,,Europe/Helsinki
33,33,Markulantie,,60.47612458,22.2499092,FÖLI,,0,,Europe/Helsinki
6620,6620,Ylä-Vista,,60.45093437,22.69370117,V-S ELY,,0,,Europe/Helsinki
6648,6648,Auvola,,60.42670374,22.62516489,V-S ELY,,0,,Europe/Helsinki
5074,5074,Harviainen,,60.50989317,22.3947614,FÖLI,,0,,Europe/Helsinki
5426,5426,Tarvasjoen paloasema,,60.5781495,22.7578934,FÖLI,,0,,Europe/Helsinki
437,437,Jänessaarentie,,60.41793578,22.18421105,FÖLI,,0,,Europe/Helsinki
1809,1809,Öölanninkatu,,60.45634801,22.15205885,FÖLI,,0,,Europe/Helsinki
6092,6092,Kärppälä,,60.44624417,22.38594129,FÖLI,,0,,Europe/Helsinki
533,533,Ruissalonsilta,,60.44070782,22.20452532,FÖLI,,0,,Europe/Helsinki
732,732,Kemppilänkatu,,60.44837655,22.15093799,FÖLI,,0,,Europe/Helsinki
6743,6743,Pennainen,,60.51998677,22.64850741,V-S ELY,,0,,Europe/Helsinki
6090,6090,Littoisten monitoimitalo,,60.44539289,22.39042934,FÖLI,,0,,Europe/Helsinki
623,623,Kaerlantie,,60.48014723,22.27704664,FÖLI,,0,,Europe/Helsinki
612,612,Kastuntie,,60.46504347,22.27023247,FÖLI,,0,,Europe/Helsinki
676,676,Nuorisotalo,,60.44869876,22.17165731,FÖLI,,0,,Europe/Helsinki
3136,3136,Poikon rantatie,,60.41770436,21.89680651,FÖLI,,0,,Europe/Helsinki
12,12,Klassikonpolku,,60.44710884,22.26094372,FÖLI,,0,,Europe/Helsinki
962,962,Eskonkatu,,60.47725208,22.24950721,FÖLI,,0,,Europe/Helsinki
6138,6138,Ylikylä,,60.40955926,22.38164167,FÖLI,,0,,Europe/Helsinki
4036,4036,Paasniittu,,60.54271987,22.24880294,FÖLI,,0,,Europe/Helsinki
3240,3240,Virventie,,60.45995693,21.93448539,FÖLI,,0,,Europe/Helsinki
6633,6633,Paimion terveyskeskus,,60.43969763,22.68893375,V-S ELY,,0,,Europe/Helsinki
2062,2062,Kokinvuori,,60.50047998,22.15431462,FÖLI,,0,,Europe/Helsinki
1605,1605,Assistentinkatu,,60.45975026,22.28220061,FÖLI,,0,,Europe/Helsinki
2113,2113,Keonpellonkatu,,60.48830778,22.17120559,FÖLI,,0,,Europe/Helsinki
3172,3172,Herrankukkaro,,60.33534299,21.98001847,FÖLI,,0,,Europe/Helsinki
1280,1280,Järvenpääntie,,60.36976683,22.27626996,FÖLI,,0,,Europe/Helsinki
321,321,Mustalahdentie,,60.40622107,22.17952975,FÖLI,,0,,Europe/Helsinki
8,8,Panimo,,60.44043019,22.24335935,FÖLI,,0,,Europe/Helsinki
5003,5003,Vanhalinna,,60.48087989,22.38482022,FÖLI,,0,,Europe/Helsinki
3225,3225,Väinölä,,60.4717556,22.0274413,FÖLI,,0,,Europe/Helsinki
6326,6326,Telkänkuja,,60.41842757,22.51915161,FÖLI,,0,,Europe/Helsinki
1236,1236,Lustikullantie,,60.35735882,22.17500019,FÖLI,,0,,Europe/Helsinki
655,655,Piiskakuja,,60.48571981,22.32949163,FÖLI,,0,,Europe/Helsinki
83,83,Hirvensalonsilta,,60.42026702,22.23241823,FÖLI,,0,,Europe/Helsinki
1482,1482,Särkilahdentie,,60.42105621,22.20337039,FÖLI,,0,,Europe/Helsinki
563,563,Iso-Pukintie,,60.42694013,22.14156938,FÖLI,,0,,Europe/Helsinki
873,873,Sammonkatu,,60.44956159,22.31189107,FÖLI,,0,,Europe/Helsinki
3239,3239,Kultarannan koulun piha,,60.46163402,21.9865807,FÖLI,,0,,Europe/Helsinki
5090,5090,Iso-Ketola,,60.53642306,22.43213225,FÖLI,,0,,Europe/Helsinki
6234,6234,"Piikkiö, 110-tie",,60.42281151,22.5180018,FÖLI,,0,,Europe/Helsinki
1784,1784,Antinkuja,,60.55041154,22.31071004,FÖLI,,0,,Europe/Helsinki
18,18,Konserttitalo,,60.45562261,22.27002189,FÖLI,,0,,Europe/Helsinki
1651,1651,Kohmo,,60.45837021,22.35103189,FÖLI,,0,,Europe/Helsinki
6309,6309,Empola,,60.38954289,22.38617194,FÖLI,,0,,Europe/Helsinki
2078,2078,Konsanmäki,,60.47645183,22.15695907,FÖLI,,0,,Europe/Helsinki
844,844,Rautakatu,,60.4505597,22.30501287,FÖLI,,0,,Europe/Helsinki
814,814,Karrinkatu,,60.47887988,22.23493195,FÖLI,,0,,Europe/Helsinki
3218,3218,Petäjäkaari,,60.48396762,22.04601344,FÖLI,,0,,Europe/Helsinki
3064,3064,Kouvolantie,,60.49492197,21.86850977,FÖLI,,0,,Europe/Helsinki
6097,6097,Pellervonkatu,,60.44884836,22.37343295,FÖLI,,0,,Europe/Helsinki
6069,6069,Sidoskatu,,60.42966129,22.38449534,FÖLI,,0,,Europe/Helsinki
8143,8143,Norrbyntie L,,60.30896936,22.30686943,V-S ELY,,0,,Europe/Helsinki
789,789,Telakkaranta,,60.43530481,22.23932539,FÖLI,,0,,Europe/Helsinki
6122,6122,Vaskitie,,60.44477769,22.36677096,FÖLI,,0,,Europe/Helsinki
1518,1518,Kirjaltajankatu,,60.45587997,22.18149354,FÖLI,,0,,Europe/Helsinki
161,161,Tähtitorninkatu,,60.44557821,22.28111199,FÖLI,,0,,Europe/Helsinki
901,901,Vesivuotavantie,,60.45629042,22.21853403,FÖLI,,0,,Europe/Helsinki
517,517,Pulkkavuori,,60.41518264,22.27965284,FÖLI,,0,,Europe/Helsinki
1136,1136,Kaivastentie,,60.6143774,22.4191552,FÖLI,,0,,Europe/Helsinki
3221,3221,Kuparivuoren koulu,,60.46536848,22.02064395,FÖLI,,0,,Europe/Helsinki
673,673,Siilinpolku,,60.44476408,22.158648,FÖLI,,0,,Europe/Helsinki
6665,6665,Tomerontie,,60.47308315,22.73256607,V-S ELY,,0,,Europe/Helsinki
6677,6677,Paimion metsäkoulu,,60.50474036,22.77067901,V-S ELY,,0,,Europe/Helsinki
860,860,Luolavuorentie,,60.43892846,22.27032495,FÖLI,,0,,Europe/Helsinki
367,367,Suvelantie,,60.38649272,22.22305285,FÖLI,,0,,Europe/Helsinki
66,66,Akatemiantalo,,60.45148812,22.28068962,FÖLI,,0,,Europe/Helsinki
6689,6689,Jokela,,60.4039306,22.7544667,V-S ELY,,0,,Europe/Helsinki
3100,3100,Tiilenkantajantie,,60.48814133,22.06347253,FÖLI,,0,,Europe/Helsinki
1472,1472,Peltola,,60.42214531,22.29878989,FÖLI,,0,,Europe/Helsinki
5217,5217,Liedon vanhainkoti,,60.519916,22.45072943,FÖLI,,0,,Europe/Helsinki
689,689,Lehmustie,,60.43750632,22.30594678,FÖLI,,0,,Europe/Helsinki
5050,5050,Mustavuorentie,,60.45259828,22.41031802,FÖLI,,0,,Europe/Helsinki
376,376,Höyttistentie,,60.36834967,22.17484242,FÖLI,,0,,Europe/Helsinki
859,859,Toivolankatu,,60.43728934,22.26696141,FÖLI,,0,,Europe/Helsinki
1151,1151,Jaakolantie,,60.67919551,22.43972705,FÖLI,,0,,Europe/Helsinki
1810,1810,Öölanninkatu,,60.45625954,22.15234515,FÖLI,,0,,Europe/Helsinki
1623,1623,Tallgreninkatu,,60.47283702,22.3052303,FÖLI,,0,,Europe/Helsinki
3042,3042,Heikinmäki,,60.45920788,21.90898031,FÖLI,,0,,Europe/Helsinki
1523,1523,Artukaisten kiitotie,,60.45289135,22.1908386,FÖLI,,0,,Europe/Helsinki
6047,6047,Kaarinan terveyskeskus,,60.40739065,22.37718781,FÖLI,,0,,Europe/Helsinki
976,976,Kuninkojantie,,60.4755108,22.23952548,FÖLI,,0,,Europe/Helsinki
59,59,Kotimäenkatu,,60.45768451,22.31789001,FÖLI,,0,,Europe/Helsinki
3012,3012,Naantalin kylpylä,,60.47325489,22.03508098,FÖLI,,0,,Europe/Helsinki
1522,1522,Artukaisten kiitotie,,60.45269281,22.1888293,FÖLI,,0,,Europe/Helsinki
6339,6339,Linnunpää,,60.39267942,22.57215957,FÖLI,,0,,Europe/Helsinki
8963,8963,Retais,,60.16562069,21.69114383,V-S ELY,,0,,Europe/Helsinki
313,313,Nepontie,,60.38909957,22.18270242,FÖLI,,0,,Europe/Helsinki
8001,8001,Leinakkala,,60.57602704,22.49171541,V-S ELY,,0,,Europe/Helsinki
1378,1378,Isovuorentie,,60.54313941,22.29798412,FÖLI,,0,,Europe/Helsinki
6725,6725,Paimion vanhainkoti,,60.48238079,22.69111054,V-S ELY,,0,,Europe/Helsinki
915,915,Jaanin paloasema,,60.44146803,22.32281209,FÖLI,,0,,Europe/Helsinki
5255,5255,Keisvuoren hautausmaa,,60.51439494,22.4512134,FÖLI,,0,,Europe/Helsinki
6282,6282,Prisma Piispanristi,,60.41578952,22.32685275,FÖLI,,0,,Europe/Helsinki
1545,1545,Ajurinkatu,,60.45485279,22.26001315,FÖLI,,0,,Europe/Helsinki
6371,6371,Ukonkatu,,60.45905322,22.37268804,FÖLI,,0,,Europe/Helsinki
1548,1548,Aurorankatu,,60.48873944,22.23257116,FÖLI,,0,,Europe/Helsinki
6260,6260,Haadenniemi,,60.42849957,22.5371843,FÖLI,,0,,Europe/Helsinki
5052,5052,Maijassuonkuja,,60.45395568,22.41240116,FÖLI,,0,,Europe/Helsinki
1632,1632,Nuntiuksenkuja,,60.47243251,22.32131573,FÖLI,,0,,Europe/Helsinki
1980,1980,"Turun satama, kaukoliikenne",,60.43489678,22.22368517,FÖLI,,0,,Europe/Helsinki
6132,6132,Sorro,,60.41185124,22.35119571,FÖLI,,0,,Europe/Helsinki
6156,6156,Runko,,60.42073874,22.46561723,FÖLI,,0,,Europe/Helsinki
6399,6399,Kaarinan uimahallin piha,,60.40296017,22.37490992,FÖLI,,0,,Europe/Helsinki
318,318,Kivikarinkuja,,60.39756467,22.17686935,FÖLI,,0,,Europe/Helsinki
5114,5114,Tammentaka,,60.57100824,22.46035934,FÖLI,,0,,Europe/Helsinki
6006,6006,Rauvolantie,,60.41107514,22.31347891,FÖLI,,0,,Europe/Helsinki
1515,1515,Turkuhalli,,60.45807801,22.18732076,FÖLI,,0,,Europe/Helsinki
674,674,Öljysatama,,60.4440387,22.16490727,FÖLI,,0,,Europe/Helsinki
503,503,Henrikinkirkko,,60.43301491,22.29319673,FÖLI,,0,,Europe/Helsinki
1413,1413,Nikkilä,,60.3760663,22.16401926,FÖLI,,0,,Europe/Helsinki
2095,2095,Laisto,,60.46860991,22.17548641,FÖLI,,0,,Europe/Helsinki
514,514,Murkionkatu,,60.41760664,22.29299182,FÖLI,,0,,Europe/Helsinki
866,866,Vähä Hämeenkatu,,60.45143617,22.2830269,FÖLI,,0,,Europe/Helsinki
593,593,Kohmo,,60.45810214,22.35210791,FÖLI,,0,,Europe/Helsinki
6288,6288,Visiitti,,60.40857222,22.41649688,FÖLI,,0,,Europe/Helsinki
1235,1235,Niemenkulmantie,,60.36009151,22.17646502,FÖLI,,0,,Europe/Helsinki
401,401,Vanha Pikisaarentie,,60.41842617,22.20548601,FÖLI,,0,,Europe/Helsinki
6615,6615,Kostilantie,,60.45607483,22.68563079,V-S ELY,,0,,Europe/Helsinki
6624,6624,Silkkikivi,,60.44746358,22.70032898,V-S ELY,,0,,Europe/Helsinki
6023,6023,Koristo,,60.40461341,22.35786421,FÖLI,,0,,Europe/Helsinki
6068,6068,Krossinkatu,,60.41903667,22.38169509,FÖLI,,0,,Europe/Helsinki
3140,3140,Antinrannantie,,60.40988533,21.89694331,FÖLI,,0,,Europe/Helsinki
813,813,Asentajakatu,,60.47494124,22.23416287,FÖLI,,0,,Europe/Helsinki
55,55,Satamakatu,,60.43576687,22.2256312,FÖLI,,0,,Europe/Helsinki
4022,4022,Hiidenvainio,,60.54571652,22.22380692,FÖLI,,0,,Europe/Helsinki
243,243,Messinkikatu,,60.50717326,22.32264229,FÖLI,,0,,Europe/Helsinki
642,642,Messukentänkatu,,60.44905146,22.17815724,FÖLI,,0,,Europe/Helsinki
3279,3279,Tamminiemi,,60.41259545,21.84878218,FÖLI,,0,,Europe/Helsinki
635,635,Liisankatu,,60.43331967,22.27668991,FÖLI,,0,,Europe/Helsinki
609,609,Vähäheikkiläntie,,60.43973558,22.28267062,FÖLI,,0,,Europe/Helsinki
3230,3230,Haijaisten kuntokeskus,,60.44162006,22.00221144,FÖLI,,0,,Europe/Helsinki
2148,2148,Kuninkaanväylä,,60.49875272,22.2309882,FÖLI,,0,,Europe/Helsinki
5211,5211,Halkeevahantie,,60.58931163,22.42485113,FÖLI,,0,,Europe/Helsinki
550,550,Villa Y-Hovi,,60.42685514,22.10811368,FÖLI,,0,,Europe/Helsinki
5092,5092,Kujalantie,,60.53907095,22.43411236,FÖLI,,0,,Europe/Helsinki
197,197,Möörönkuja,,60.47391916,22.28370926,FÖLI,,0,,Europe/Helsinki
5199,5199,Kaurinkoskentie,,60.55174762,22.46602136,FÖLI,,0,,Europe/Helsinki
2046,2046,Vuotama,,60.48202296,22.09962554,FÖLI,,0,,Europe/Helsinki
6275,6275,Hepojoki,,60.46322947,22.56530354,FÖLI,,0,,Europe/Helsinki
5462,5462,Sipiläntie,,60.59195435,22.66253162,FÖLI,,0,,Europe/Helsinki
6611,6611,Marjavuori,,60.45344868,22.65491736,V-S ELY,,0,,Europe/Helsinki
6321,6321,Piikkiön terveyskeskus,,60.42211332,22.52609788,FÖLI,,0,,Europe/Helsinki
6049,6049,Kaarinan lukio,,60.40784733,22.38308437,FÖLI,,0,,Europe/Helsinki
1671,1671,Tierankatu,,60.44383548,22.31319098,FÖLI,,0,,Europe/Helsinki
443,443,Kongressikuja,,60.46017535,22.28734567,FÖLI,,0,,Europe/Helsinki
536,536,Resiinakatu,,60.45513998,22.24790232,FÖLI,,0,,Europe/Helsinki
8810,8810,Koski Tl,,60.65326858,23.14044177,V-S ELY,,0,,Europe/Helsinki
5169,5169,Kurimontie,,60.54211679,22.62491126,FÖLI,,0,,Europe/Helsinki
6150,6150,Tuorla,,60.41697436,22.43809146,FÖLI,,0,,Europe/Helsinki
505,505,Kaurakatu,,60.42761463,22.29201485,FÖLI,,0,,Europe/Helsinki
728,728,Paakarlantie,,60.44534609,22.17317513,FÖLI,,0,,Europe/Helsinki
1542,1542,Muhkuri,,60.45836769,22.21979361,FÖLI,,0,,Europe/Helsinki
3215,3215,Soiniementie,,60.49233336,22.03354262,FÖLI,,0,,Europe/Helsinki
1656,1656,Jaaninoja,,60.45925492,22.33546768,FÖLI,,0,,Europe/Helsinki
8102,8102,Kirjala P,,60.35925711,22.35759472,V-S ELY,,0,,Europe/Helsinki
91,91,Saapaskallio,,60.41867919,22.24356109,FÖLI,,0,,Europe/Helsinki
688,688,Lehmusaukio,,60.43688925,22.30258661,FÖLI,,0,,Europe/Helsinki
3027,3027,Kultaranta,,60.46246632,21.99459248,FÖLI,,0,,Europe/Helsinki
3261,3261,Merimaskun koulu,,60.47032621,21.87182039,FÖLI,,0,,Europe/Helsinki
3275,3275,Leiklahdentie,,60.41423582,21.91964651,FÖLI,,0,,Europe/Helsinki
6303,6303,Kuusiston koulu,,60.38878073,22.40282776,FÖLI,,0,,Europe/Helsinki
1600,1600,Nahkurinkatu,,60.45587314,22.27530083,FÖLI,,0,,Europe/Helsinki
298,298,Pujottelumäki,,60.41749593,22.22986095,FÖLI,,0,,Europe/Helsinki
1091,1091,Keinumäentie,,60.51583782,22.34593685,FÖLI,,0,,Europe/Helsinki
1126,1126,Männistöntie,,60.58677575,22.36906737,FÖLI,,0,,Europe/Helsinki
6613,6613,Munkkila,,60.45466007,22.6669842,V-S ELY,,0,,Europe/Helsinki
4028,4028,Männistöntie,,60.54617686,22.23943824,FÖLI,,0,,Europe/Helsinki
4026,4026,Knaapinmäki,,60.54407842,22.23430758,FÖLI,,0,,Europe/Helsinki
6225,6225,Tuomola,,60.42019744,22.48325552,FÖLI,,0,,Europe/Helsinki
1254,1254,Tiisalantie,,60.37381054,22.27039945,FÖLI,,0,,Europe/Helsinki
1485,1485,Sävelkuja,,60.41800902,22.30182457,FÖLI,,0,,Europe/Helsinki
699,699,Kämnerinpolku,,60.43522813,22.35074271,FÖLI,,0,,Europe/Helsinki
2131,2131,Tikanmaankatu,,60.49246178,22.11281015,FÖLI,,0,,Europe/Helsinki
2023,2023,Tikanmaa,,60.48829547,22.11444085,FÖLI,,0,,Europe/Helsinki
43,43,Kerttulinkatu,,60.44796703,22.28839013,FÖLI,,0,,Europe/Helsinki
3265,3265,Varsluodontie,,60.52349482,21.77989067,FÖLI,,0,,Europe/Helsinki
3271,3271,Peräinen,,60.42776364,21.9201685,FÖLI,,0,,Europe/Helsinki
1724,1724,Pampinkatu,,60.41426511,22.24533419,FÖLI,,0,,Europe/Helsinki
1838,1838,Rauhankatu,,60.45130132,22.25547186,FÖLI,,0,,Europe/Helsinki
977,977,Konevarikko,,60.47553706,22.2568805,FÖLI,,0,,Europe/Helsinki
1456,1456,Apilakatu,,60.42537776,22.30783354,FÖLI,,0,,Europe/Helsinki
5183,5183,Kujansuu,,60.55131304,22.66982754,FÖLI,,0,,Europe/Helsinki
969,969,Artukainen,,60.45226757,22.18627114,FÖLI,,0,,Europe/Helsinki
731,731,Tuomela,,60.61858787,22.42790495,FÖLI,,0,,Europe/Helsinki
1487,1487,Turunmaankatu,,60.41353594,22.30525249,FÖLI,,0,,Europe/Helsinki
515,515,Ilpoistenrinne,,60.41519666,22.28308695,FÖLI,,0,,Europe/Helsinki
5250,5250,Teijula,,60.51869747,22.45137481,FÖLI,,0,,Europe/Helsinki
6082,6082,Verkakaari,,60.44512277,22.41721554,FÖLI,,0,,Europe/Helsinki
1286,1286,Kalliolantie,,60.35378377,22.24009792,FÖLI,,0,,Europe/Helsinki
3176,3176,Knaapila,,60.32902095,21.97146988,FÖLI,,0,,Europe/Helsinki
6043,6043,Kaarina,,60.40768993,22.37183809,FÖLI,,0,,Europe/Helsinki
740,740,Länsikaari,,60.45199043,22.17688327,FÖLI,,0,,Europe/Helsinki
8129,8129,Munkviken L,,60.29854182,22.30920116,V-S ELY,,0,,Europe/Helsinki
1213,1213,Kannuskatu,,60.42148977,22.26764431,FÖLI,,0,,Europe/Helsinki
3253,3253,Sannainen,,60.44776545,21.83730145,FÖLI,,0,,Europe/Helsinki
3050,3050,Horjantie,,60.46608329,21.87957706,FÖLI,,0,,Europe/Helsinki
159,159,Sepänkatu,,60.4429479,22.27286923,FÖLI,,0,,Europe/Helsinki
